$GPGGA,125737,6128.450,N,02350.350,E,1,04,2.2,174.2,M,20.7,M,,*48
$GPGSA,A,3,,,,,,18,19,,26,28,29,,2.2,2.2,1.0*37
$GPGSV,3,1,11,03,04,013,00,07,01,153,00,08,53,094,38,10,16,209,36*7F
$GPGSV,3,2,11,15,13,332,42,18,17,328,36,19,21,036,44,21,05,299,36*76
$GPGSV,3,3,11,26,59,278,46,28,61,145,39,29,68,251,48,,,,*46
$PGRME,8.3,M,17.6,M,9.8,M*14
$GPGLL,6128.454,N,02350.341,E,125737,A*25
$PGRMZ,564,f,3*1C
$PGRMM,WGS 84*06
$GPBOD,285.4,T,279.4,M,T012,T013*45
$GPWPL,6016.083,S,02452.500,E,T019*34
$GPRMC,125738,A,6128.459,N,02350.335,E,038.5,335.8,110805,006.0,E*70
$GPRMB,A,0.24,R,T013,T012,6129.236,N,02346.327,E,002.1,292.0,027.7,V*29
$GPGGA,125738,6128.461,N,02350.333,E,1,05,2.3,171.9,M,20.7,M,,*4E
$GPGSA,A,3,,,,,,18,19,,26,28,29,,2.3,2.3,1.0*37
$GPGSV,3,1,11,03,04,013,00,07,01,153,00,08,53,094,37,10,16,209,36*70
$GPGSV,3,2,11,15,13,332,42,18,17,328,37,19,21,036,43,21,05,299,36*70
$GPGSV,3,3,11,26,59,278,46,28,61,145,39,29,68,251,48,,,,*46
$PGRME,8.6,M,16.6,M,10.0,M*20
$GPGLL,6128.467,N,02350.328,E,125739,A*24
$PGRMZ,564,f,3*1C
$PGRMM,WGS 84*06
$GPBOD,285.4,T,279.4,M,T012,T013*45
$GPWPL,6016.083,N,02452.500,E,T018*28
$GPRMC,125739,A,6128.472,N,02350.322,E,038.6,335.6,110805,006.0,E*73
$GPRMB,A,0.23,R,T013,T012,6129.236,N,02346.327,E,002.1,291.8,027.9,V*2B
$GPGGA,125739,6128.474,N,02350.321,E,1,05,2.3,171.9,M,20.7,M,,*48
$GPGSA,A,3,,,,,,18,19,,26,28,29,,2.3,2.3,1.0*37
$GPGSV,3,1,11,03,04,013,00,07,01,153,00,08,53,094,38,10,16,209,36*7F
$GPGSV,3,2,11,15,13,332,42,18,17,328,38,19,21,036,42,21,05,299,35*7D
$GPGSV,3,3,11,26,59,278,46,28,61,145,39,29,68,251,48,,,,*46
$PGRME,8.6,M,16.6,M,10.0,M*20
$GPGLL,6128.480,N,02350.315,E,125740,A*2D
$PGRMZ,564,f,3*1C
$PGRMM,WGS 84*06
$GPBOD,285.4,T,279.4,M,T012,T013*45
$GPWPL,6013.283,N,02456.650,E,T017*22
$GPRMC,125740,A,6128.484,N,02350.308,E,038.6,335.1,110805,006.0,E*7B
$GPRMB,A,0.22,R,T013,T012,6129.236,N,02346.327,E,002.1,291.5,028.0,V*21
$GPGGA,125741,6128.486,N,02350.306,E,1,05,2.5,168.5,M,20.7,M,,*4D
$GPGSA,A,3,,,,,,18,19,,26,28,29,,2.9,2.5,1.6*3D
$GPGSV,3,1,11,03,04,013,00,07,01,153,00,08,53,094,38,10,16,209,34*7D
$GPGSV,3,2,11,15,13,332,41,18,17,328,39,19,21,036,40,21,05,299,34*7C
$GPGSV,3,3,11,26,59,278,46,28,61,145,39,29,68,251,48,,,,*46
$PGRME,9.5,M,16.6,M,11.1,M*22
$GPGLL,6128.492,N,02350.298,E,125741,A*2B
$PGRMZ,552,f,3*19
$PGRMM,WGS 84*06
$GPBOD,285.4,T,279.4,M,T012,T013*45
$GPWPL,6123.283,N,02430.650,E,T016*21
$GPRMC,125742,A,6128.497,N,02350.292,E,039.4,332.4,110805,006.0,E*78
$GPRMB,A,0.21,R,T013,T012,6129.236,N,02346.327,E,002.0,291.3,029.7,V*23
$GPGGA,125742,6128.498,N,02350.289,E,1,05,2.5,168.4,M,20.7,M,,*46
$GPGSA,A,3,,,,,,18,19,,26,28,29,,2.8,2.5,1.0*3A
$GPGSV,3,1,11,03,04,013,00,07,01,153,00,08,53,094,38,10,16,209,32*7B
$GPGSV,3,2,11,15,13,332,40,18,17,328,39,19,21,036,39,21,05,299,33*74
$GPGSV,3,3,11,26,59,278,46,28,61,145,39,29,68,251,48,,,,*46
$PGRME,9.5,M,16.6,M,11.1,M*22
$GPGLL,6128.505,N,02350.283,E,125743,A*2C
$PGRMZ,552,f,3*19
$PGRMM,WGS 84*06
$GPBOD,285.4,T,279.4,M,T012,T013*45
$GPWPL,0000.000,N,00000.000,W,T015*39
$GPRMC,125743,A,6128.509,N,02350.277,E,039.4,332.2,110805,006.0,E*72
$GPRMB,A,0.20,R,T013,T012,6129.236,N,02346.327,E,002.0,291.0,029.7,V*21
$GPGGA,125743,6128.511,N,02350.275,E,1,05,2.5,168.3,M,20.7,M,,*43
$GPGSA,A,3,,,,,,18,19,,26,28,29,,2.8,2.5,1.0*3A
$GPGSV,3,1,11,03,04,013,00,07,01,153,00,08,53,094,37,10,16,209,32*74
$GPGSV,3,2,11,15,13,332,41,18,17,328,40,19,21,036,38,21,05,299,33*7A
$GPGSV,3,3,11,26,59,278,46,28,61,145,39,29,68,251,48,,,,*46
$PGRME,9.5,M,16.6,M,11.1,M*22
$GPGLL,6128.517,N,02350.268,E,125744,A*2D
$PGRMZ,552,f,3*19
$PGRMM,WGS 84*06
$GPBOD,285.4,T,279.4,M,T012,T013*45
$GPWPL,0009.000,N,02430.650,E,T014*25
$GPRMC,125744,A,6128.522,N,02350.262,E,039.5,332.1,110805,006.0,E*7A
$GPRMB,A,0.19,R,T013,T012,6129.236,N,02346.327,E,002.0,290.8,029.7,V*22
$GPGGA,125745,6128.524,N,02350.260,E,1,05,2.6,168.3,M,20.7,M,,*44
$GPGSA,A,3,,,,,,18,19,,26,28,29,,2.8,2.6,1.0*39
$GPGSV,3,1,11,03,04,013,00,07,01,153,00,08,53,094,36,10,16,209,32*75
$GPGSV,3,2,11,15,13,332,39,18,17,328,40,19,21,036,37,21,05,299,32*7B
$GPGSV,3,3,11,26,59,278,46,28,61,145,40,29,68,251,48,,,,*48
$PGRME,9.5,M,16.6,M,11.1,M*22
$GPGLL,6128.530,N,02350.253,E,125745,A*21
$PGRMZ,552,f,3*19
$PGRMM,WGS 84*06
$GPBOD,285.4,T,279.4,M,T012,T013*45
$GPWPL,6123.285,N,02430.651,E,T013*23
$GPRMC,125746,A,6128.535,N,02350.247,E,039.5,331.8,110805,006.0,E*73
$GPRMB,A,0.18,R,T013,T012,6129.236,N,02346.327,E,002.0,290.5,029.8,V*21
$GPGGA,125746,6128.537,N,02350.245,E,1,05,2.6,168.2,M,20.7,M,,*43
$GPGSA,A,3,,,,,,18,19,,26,28,29,,2.8,2.6,1.0*39
$GPGSV,3,1,11,03,04,013,00,07,01,153,00,08,53,094,36,10,16,209,32*75
$GPGSV,3,2,11,15,13,332,39,18,18,327,40,19,21,036,37,21,05,299,32*7B
$GPGSV,3,3,11,26,59,278,45,28,61,145,40,29,68,251,47,,,,*44
$PGRME,9.5,M,16.6,M,11.1,M*22
$GPGLL,6128.542,N,02350.237,E,125746,A*25
$PGRMZ,552,f,3*19
$PGRMM,WGS 84*06
$GPBOD,285.4,T,279.4,M,T012,T013*45
$GPWPL,6129.236,N,02346.327,E,T012*22
$GPRMC,125747,A,6128.547,N,02350.230,E,040.1,329.4,110805,006.0,E*78
$GPRMB,A,0.17,R,T013,T012,6129.236,N,02346.327,E,002.0,290.2,031.1,V*29
$GPGGA,125747,6128.549,N,02350.227,E,1,05,2.6,168.2,M,20.7,M,,*4F
$GPGSA,A,3,,,,,,18,19,,26,28,29,,2.8,2.6,1.0*39
$GPGSV,3,1,11,03,04,013,00,07,01,153,00,08,53,094,36,10,16,209,32*75
$GPGSV,3,2,11,15,13,332,39,18,18,327,39,19,21,036,36,21,05,299,32*74
$GPGSV,3,3,11,26,59,278,46,28,61,145,40,29,68,251,47,,,,*47
$PGRME,9.5,M,16.6,M,11.1,M*22
$GPGLL,6128.555,N,02350.220,E,125748,A*2B
$PGRMZ,552,f,3*19
$PGRMM,WGS 84*06
$GPBOD,285.4,T,279.4,M,T012,T013*45
$GPWPL,6114.236,N,02346.327,E,T011*2F
$GPRMC,125748,A,6128.560,N,02350.214,E,040.0,329.3,110805,006.0,E*72
$GPRMB,A,0.16,R,T013,T012,6129.236,N,02346.327,E,002.0,290.0,031.0,V*2B
$GPGGA,125748,6128.562,N,02350.211,E,1,05,2.6,168.2,M,20.7,M,,*4C
$GPGSA,A,3,,,,,,18,19,,26,28,29,,2.8,2.6,1.0*39
$GPGSV,3,1,11,03,04,013,00,07,01,153,00,08,53,094,35,10,16,209,33*77
$GPGSV,3,2,11,15,13,332,38,18,18,327,40,19,21,036,35,21,05,299,31*7B
$GPGSV,3,3,11,26,59,278,47,28,61,145,40,29,68,251,47,,,,*46
$PGRME,9.5,M,16.6,M,11.1,M*22
$GPGLL,6128.568,N,02350.203,E,125749,A*25
$PGRMZ,552,f,3*19
$PGRMM,WGS 84*06
$GPBOD,285.4,T,279.4,M,T012,T013*45
$GPWPL,6220.236,N,02346.327,E,T010*2A
$GPRMC,125750,A,6128.572,N,02350.197,E,039.8,329.1,110805,006.0,E*74
$GPRMB,A,0.15,R,T013,T012,6129.236,N,02346.327,E,002.0,289.7,030.9,V*2F
$GPGGA,125750,6128.574,N,02350.195,E,1,05,2.6,168.2,M,20.7,M,,*4D
$GPGSA,A,3,,,,,,18,,,26,28,29,,2.8,2.6,1.0*31
$GPGSV,3,1,11,03,04,013,00,07,01,153,00,08,53,094,34,10,16,209,33*76
$GPGSV,3,2,11,15,13,332,38,18,18,327,39,19,21,035,34,21,05,299,31*77
$GPGSV,3,3,11,26,59,278,47,28,61,145,40,29,68,251,47,,,,*46
$PGRME,9.5,M,16.6,M,11.1,M*22
$GPGLL,6128.580,N,02350.187,E,125750,A*24
$PGRMZ,552,f,3*19
$PGRMM,WGS 84*06
$GPBOD,285.4,T,279.4,M,T012,T013*45
$GPWPL,6120.236,N,02346.327,E,T009*21
$GPRMC,125751,A,6128.585,N,02350.181,E,039.4,329.0,110805,006.0,E*77
$GPRMB,A,0.14,R,T013,T012,6129.236,N,02346.327,E,002.0,289.4,030.3,V*27
$GPGGA,125751,6128.587,N,02350.179,E,1,04,2.7,168.2,M,20.7,M,,*42
$GPGSA,A,3,,,,,,18,,,26,28,29,,2.8,2.7,1.0*30
$GPGSV,3,1,11,03,04,013,00,07,01,153,00,08,53,094,34,10,16,209,35*70
$GPGSV,3,2,11,15,13,332,37,18,18,327,39,19,21,035,34,21,05,299,31*78
$GPGSV,3,3,11,26,59,278,48,28,61,145,40,29,68,251,47,,,,*49
$PGRME,9.5,M,16.6,M,11.1,M*22
$GPGLL,6128.592,N,02350.172,E,125752,A*2F
$PGRMZ,552,f,3*19
$PGRMM,WGS 84*06
$GPBOD,285.4,T,279.4,M,T012,T013*45
$GPWPL,6129.234,N,02346.317,E,T008*28
$GPRMC,125752,A,6128.597,N,02350.165,E,039.2,328.9,110805,006.0,E*73
$GPRMB,A,0.13,R,T013,T012,6129.236,N,02346.327,E,001.9,289.2,030.2,V*2D
$GPGGA,125752,6128.599,N,02350.163,E,1,04,2.7,168.2,M,20.7,M,,*45
$GPGSA,A,3,,,,,,18,,,26,28,29,,2.8,2.7,1.0*30
$GPGSV,3,1,11,03,04,013,00,07,01,153,00,08,53,094,33,10,16,209,34*76
$GPGSV,3,2,11,15,13,332,36,18,18,327,39,19,21,035,34,21,05,299,31*79
$GPGSV,3,3,11,26,59,278,48,28,61,145,40,29,68,251,47,,,,*49
$PGRME,9.7,M,16.6,M,11.1,M*20
$GPGLL,6128.605,N,02350.155,E,125753,A*26
$PGRMZ,552,f,3*19
$PGRMM,WGS 84*06
$GPBOD,285.4,T,279.4,M,T012,T013*45
$GPWPL,6157.564,N,02406.158,E,T007*26
$GPRMC,125753,A,6128.609,N,02350.149,E,039.0,328.7,110805,006.0,E*74
$GPRMB,A,0.12,R,T013,T012,6129.236,N,02346.327,E,001.9,288.9,030.0,V*24
$GPGGA,125753,6128.611,N,02350.147,E,1,04,2.7,168.2,M,20.7,M,,*41
$GPGSA,A,3,,,,,,18,,,26,28,29,,2.8,2.7,1.0*30
$GPGSV,3,1,11,03,04,013,00,07,01,153,00,08,53,094,34,10,16,209,33*76
$GPGSV,3,2,11,15,13,332,36,18,18,327,40,19,21,035,33,21,05,299,31*70
$GPGSV,3,3,11,26,59,278,48,28,61,145,39,29,68,251,48,,,,*48
$PGRME,9.7,M,16.6,M,11.1,M*20
$GPGLL,6128.617,N,02350.139,E,125754,A*28
$PGRMZ,552,f,3*19
$PGRMM,WGS 84*06
$GPBOD,285.4,T,279.4,M,T012,T013*45
$GPWPL,6145.919,N,02345.544,E,T006*2B
$GPRMC,125755,A,6128.621,N,02350.132,E,038.8,328.3,110805,006.0,E*79
$GPRMB,A,0.11,R,T013,T012,6129.236,N,02346.327,E,001.9,288.7,029.9,V*28
$GPGGA,125755,6128.622,N,02350.130,E,1,04,2.8,165.6,M,20.7,M,,*41
$GPGSA,A,3,,,,,,18,19,,26,28,29,,3.3,2.8,1.6*3B
$GPGSV,3,1,11,03,04,013,00,07,01,153,00,08,53,094,34,10,16,209,33*76
$GPGSV,3,2,11,15,13,332,36,18,18,327,39,19,21,035,35,21,05,299,31*78
$GPGSV,3,3,11,26,59,278,48,28,61,145,40,29,68,251,47,,,,*49
$PGRME,10.3,M,17.7,M,13.2,M*1D
$GPGLL,6128.628,N,02350.122,E,125755,A*2F
$PGRMZ,543,f,3*19
$PGRMM,WGS 84*06
$GPBOD,285.4,T,279.4,M,T012,T013*45
$GPWPL,6130.198,N,02342.702,E,T005*2C
$GPRMC,125756,A,6128.632,N,02350.116,E,038.7,328.3,110805,006.0,E*71
$GPRMB,A,0.10,R,T013,T012,6129.236,N,02346.327,E,001.9,288.4,029.9,V*2A
$GPGGA,125756,6128.634,N,02350.114,E,1,05,2.8,165.5,M,20.7,M,,*41
$GPGSA,A,3,,,,,,18,19,,26,28,29,,2.8,2.8,1.0*37
$GPGSV,3,1,11,03,04,013,00,07,01,153,00,08,53,094,33,10,16,209,33*71
$GPGSV,3,2,11,15,13,332,37,18,18,327,39,19,21,035,35,21,05,299,31*79
$GPGSV,3,3,11,26,59,278,48,28,61,145,39,29,68,251,47,,,,*47
$PGRME,10.4,M,16.6,M,11.1,M*1B
$GPGLL,6128.640,N,02350.107,E,125757,A*24
$PGRMZ,534,f,3*19
$PGRMM,WGS 84*06
$GPBOD,285.4,T,279.4,M,T012,T013*45
$GPWPL,6216.183,N,02619.685,E,T004*25
$GPRMC,125757,A,6128.643,N,02350.099,E,038.6,328.6,110805,006.0,E*74
$GPRMB,A,0.09,R,T013,T012,6129.236,N,02346.327,E,001.9,288.2,029.4,V*29
$GPGGA,125758,6128.645,N,02350.097,E,1,05,2.9,162.8,M,20.7,M,,*48
$GPGSA,A,3,,,,,,18,19,,26,28,29,,3.3,2.9,1.6*3A
$GPGSV,3,1,11,03,04,013,00,07,01,153,00,08,53,094,34,10,16,209,33*76
$GPGSV,3,2,11,15,13,332,39,18,18,327,39,19,21,035,41,21,05,299,31*74
$GPGSV,3,3,11,26,59,278,48,28,61,145,38,29,68,251,47,,,,*46
$PGRME,10.9,M,17.7,M,13.2,M*17
$GPGLL,6128.649,N,02350.088,E,125758,A*24
$PGRMZ,526,f,3*1A
$PGRMM,WGS 84*06
$GPBOD,285.4,T,279.4,M,T012,T013*45
$GPWPL,6215.064,N,02603.837,E,T003*25
$GPRMC,125759,A,6128.654,N,02350.082,E,038.4,328.5,110805,006.0,E*77
$GPRMB,A,0.08,R,T013,T012,6129.236,N,02346.327,E,001.9,287.9,029.2,V*2A
$GPGGA,125759,6128.656,N,02350.080,E,1,05,2.8,160.2,M,20.7,M,,*44
$GPGSA,A,3,,,,,,18,19,,26,28,29,,2.8,2.8,1.0*37
$GPGSV,3,1,11,03,04,013,00,07,01,153,00,08,53,094,37,10,16,209,32*74
$GPGSV,3,2,11,15,13,332,40,18,18,327,40,19,21,035,40,21,05,299,31*75
$GPGSV,3,3,11,26,59,278,48,28,61,145,38,29,68,251,47,,,,*46
$PGRME,11.0,M,16.6,M,11.1,M*1E
$GPGLL,6128.661,N,02350.073,E,125759,A*2B
$PGRMZ,526,f,3*1A
$PGRMM,WGS 84*06
$GPBOD,285.4,T,279.4,M,T012,T013*45
$GPWPL,6151.098,N,02510.924,E,T002*26
$GPRMC,125800,A,6128.665,N,02350.065,E,038.1,328.2,110805,006.0,E*7D
$GPRMB,A,0.08,R,T013,T012,6129.236,N,02346.327,E,001.9,287.7,029.0,V*26
$GPGGA,125800,6128.667,N,02350.063,E,1,05,2.9,157.7,M,20.7,M,,*48
$GPGSA,A,3,,,,,,18,19,,26,28,29,,3.3,2.9,1.6*3A
$GPGSV,3,1,11,03,04,013,00,07,01,153,00,08,53,094,36,10,16,209,32*75
$GPGSV,3,2,11,15,13,332,40,18,18,327,40,19,21,035,41,21,05,299,31*74
$GPGSV,3,3,11,26,59,278,48,28,61,145,38,29,68,251,47,,,,*46
$PGRME,11.5,M,17.7,M,13.2,M*1A
$GPGLL,6128.672,N,02350.056,E,125801,A*2C
$PGRMZ,510,f,3*1F
$PGRMM,WGS 84*06
$GPBOD,285.4,T,279.4,M,T012,T013*45
$GPWPL,6129.271,N,02346.376,E,T001*27
$GPRMC,125801,A,6128.676,N,02350.049,E,038.0,328.2,110805,006.0,E*71
$GPRMB,A,0.07,R,T013,T012,6129.236,N,02346.327,E,001.9,287.5,028.9,V*23
$GPGGA,125801,6128.677,N,02350.047,E,1,05,3.0,155.5,M,20.7,M,,*46
$GPGSA,A,3,,,,,,18,19,,26,28,29,,3.7,3.0,2.1*32
$GPGSV,3,1,11,03,04,013,00,07,01,153,00,08,53,094,39,10,16,209,32*7A
$GPGSV,3,2,11,15,13,332,40,18,18,327,39,19,21,035,45,21,05,299,31*7E
$GPGSV,3,3,11,26,59,278,48,28,61,145,38,29,68,251,47,,,,*46
$PGRME,11.5,M,17.7,M,13.2,M*1A
$GPGLL,6128.682,N,02350.038,E,125802,A*28
$PGRMZ,503,f,3*1D
$PGRMM,WGS 84*06
$GPBOD,285.4,T,279.4,M,T012,T013*45
$GPRTE,4,1,c,0,T030,T029,T028,T027,T026,T025,T024,T023,T022*49
$GPRTE,4,2,c,0,T021,T020,T019,T018,T017,T016,T015,T014,T013*4B
$GPRTE,4,3,c,0,T012,T011,T010,T009,T008,T007,T006,T005,T004*4B
$GPRTE,4,4,c,0,T003,T002,T001*4F
$GPWPL,6016.083,N,02452.500,E,T030*22
$GPRMC,125803,A,6128.689,N,02350.027,E,037.7,328.8,110805,006.0,E*79
$GPRMB,A,0.06,R,T013,T012,6129.236,N,02346.327,E,001.9,287.2,028.2,V*2E
$GPGGA,125803,6128.691,N,02350.025,E,1,05,1.9,151.3,M,20.7,M,,*41
$GPGSA,A,3,,,,,,18,19,,26,28,29,,1.9,1.9,1.0*37
$GPGSV,3,1,11,03,04,013,00,07,01,153,00,08,53,094,40,10,16,209,31*77
$GPGSV,3,2,11,15,13,332,40,18,18,327,39,19,21,035,45,21,05,299,31*7E
$GPGSV,3,3,11,26,59,278,47,28,61,145,37,29,68,251,47,,,,*46
$PGRME,11.5,M,17.7,M,13.2,M*1A
$GPGLL,6128.696,N,02350.018,E,125804,A*29
$PGRMZ,496,f,3*10
$PGRMM,WGS 84*06
$GPBOD,285.4,T,279.4,M,T012,T013*45
$GPWPL,6123.283,N,02430.650,E,T029*2D
$GPRMC,125804,A,6128.700,N,02350.012,E,037.3,329.5,110805,006.0,E*70
$GPRMB,A,0.05,R,T013,T012,6129.236,N,02346.327,E,001.8,286.9,027.5,V*2E
$GPGGA,125804,6128.703,N,02350.008,E,1,05,1.8,149.3,M,20.7,M,,*4B
$GPGSA,A,3,,,,,,18,19,,26,28,29,,1.8,1.8,1.0*37
$GPGSV,3,1,11,03,04,013,00,07,01,153,00,08,53,094,40,10,16,209,31*77
$GPGSV,3,2,11,15,13,332,41,18,18,327,40,19,21,035,45,21,05,299,30*70
$GPGSV,3,3,11,26,59,278,46,28,61,145,36,29,68,251,47,,,,*46
$PGRME,11.5,M,17.7,M,13.2,M*1A
$GPGLL,6128.708,N,02350.002,E,125804,A*24
$PGRMZ,490,f,3*16
$PGRMM,WGS 84*06
$GPBOD,285.4,T,279.4,M,T012,T013*45
$GPWPL,6023.283,N,02430.650,E,T028*2D
$GPRMC,125804,A,6128.712,N,02349.996,E,037.3,329.5,110805,006.0,E*7E
$GPRMB,A,0.04,R,T013,T012,6129.236,N,02346.327,E,001.8,286.6,027.5,V*20
$GPGGA,125804,6128.714,N,02349.994,E,1,05,1.8,149.3,M,20.7,M,,*49
$GPGSA,A,3,,,,,,18,19,,26,28,29,,1.8,1.8,1.0*37
$GPGSV,3,1,11,03,04,013,00,07,01,153,00,08,53,094,40,10,16,209,31*77
$GPGSV,3,2,11,15,13,332,41,18,18,327,39,19,21,035,44,21,05,299,30*7F
$GPGSV,3,3,11,26,59,278,46,28,61,145,38,29,68,251,47,,,,*48
$PGRME,11.1,M,16.6,M,11.1,M*1F
$GPGLL,6128.720,N,02349.987,E,125806,A*20
$PGRMZ,490,f,3*16
$PGRMM,WGS 84*06
$GPBOD,285.4,T,279.4,M,T012,T013*45
$GPWPL,6123.283,N,02430.650,E,T027*23
$GPRMC,125806,A,6128.724,N,02349.982,E,037.4,329.9,110805,006.0,E*77
$GPRMB,A,0.03,R,T013,T012,6129.236,N,02346.327,E,001.8,286.3,027.1,V*26
$GPGGA,125807,6128.726,N,02349.980,E,1,05,1.9,149.3,M,20.7,M,,*4F
$GPGSA,A,3,,,,,,18,19,,26,28,29,,1.9,1.9,1.0*37
$GPGSV,3,1,11,03,04,013,00,07,01,153,00,08,53,094,40,10,16,209,31*77
$GPGSV,3,2,11,15,13,332,41,18,18,327,39,19,21,035,43,21,05,299,00*7B
$GPGSV,3,3,11,26,59,278,45,28,61,145,38,29,68,251,47,,,,*4B
$PGRME,11.1,M,16.6,M,11.1,M*1F
$GPGLL,6128.731,N,02349.973,E,125808,A*25
$PGRMZ,490,f,3*16
$PGRMM,WGS 84*06
$GPBOD,285.4,T,279.4,M,T012,T013*45
$GPWPL,6017.083,N,02452.500,E,T026*24
$GPRMC,125808,A,6128.736,N,02349.967,E,037.6,330.7,110805,006.0,E*75
$GPRMB,A,0.02,R,T013,T012,6129.236,N,02346.327,E,001.8,286.0,026.8,V*2C
$GPGGA,125808,6128.738,N,02349.965,E,1,05,2.1,149.2,M,20.7,M,,*4E
$GPGSA,A,3,,,,,,18,19,,26,28,29,,2.1,2.1,1.0*37
$GPGSV,3,1,11,03,04,013,00,07,01,153,00,08,53,094,41,10,16,209,31*76
$GPGSV,3,2,11,15,13,332,41,18,18,327,40,19,21,035,42,21,05,299,00*74
$GPGSV,3,3,11,26,59,278,45,28,61,145,38,29,68,251,48,,,,*44
$PGRME,11.6,M,17.7,M,13.2,M*19
$GPGLL,6128.743,N,02349.958,E,125809,A*28
$PGRMZ,485,f,3*12
$PGRMM,WGS 84*06
$GPBOD,285.4,T,279.4,M,T012,T013*45
$GPWPL,6017.083,S,02453.500,E,T025*3B
$GPRMC,125810,A,6128.747,N,02349.952,E,037.8,330.8,110805,006.0,E*7D
$GPRMB,A,0.01,R,T013,T012,6129.236,N,02346.327,E,001.8,285.7,026.7,V*24
$GPGGA,125810,6128.748,N,02349.949,E,1,05,2.5,146.4,M,20.7,M,,*43
$GPGSA,A,3,,,,,,18,19,,26,28,29,,3.2,2.5,2.1*33
$GPGSV,3,1,11,03,04,013,00,07,01,153,00,08,53,094,41,10,16,209,31*76
$GPGSV,3,2,11,15,13,332,39,18,18,327,39,19,21,035,42,21,05,299,00*75
$GPGSV,3,3,11,26,59,278,45,28,61,145,37,29,68,251,48,,,,*4B
$PGRME,11.6,M,17.7,M,13.2,M*19
$GPGLL,6128.754,N,02349.942,E,125810,A*2D
$PGRMZ,480,f,3*17
$PGRMM,WGS 84*06
$GPBOD,285.4,T,279.4,M,T012,T013*45
$GPWPL,6018.083,N,02453.500,E,T024*28
$GPRMC,125811,A,6128.759,N,02349.937,E,037.8,331.1,110805,006.0,E*78
$GPRMB,A,0.00,R,T013,T012,6129.236,N,02346.327,E,001.8,285.5,026.6,V*26
$GPGGA,125811,6128.760,N,02349.935,E,1,05,2.5,146.3,M,20.7,M,,*44
$GPGSA,A,3,,,,,,18,19,,26,28,29,,4.3,3.7,1.0*34
$GPGSV,3,1,11,03,04,013,00,07,01,153,00,08,53,094,41,10,16,209,31*76
$GPGSV,3,2,11,15,13,332,38,18,18,327,38,19,21,035,41,21,05,299,00*76
$GPGSV,3,3,11,26,59,278,45,28,61,145,38,29,68,251,48,,,,*44
$PGRME,16.2,M,16.6,M,17.6,M*1A
$GPGLL,6128.766,N,02349.928,E,125811,A*21
$PGRMZ,480,f,3*17
$PGRMM,WGS 84*06
$GPBOD,285.4,T,279.4,M,T012,T013*45
$GPWPL,6017.083,N,02452.500,W,T023*33
$GPRMC,125812,A,6128.771,N,02349.923,E,037.9,331.5,110805,006.0,E*71
$GPRMB,A,0.01,L,T013,T012,6129.236,N,02346.327,E,001.8,285.1,026.2,V*39
$GPGGA,125812,6128.772,N,02349.921,E,1,05,3.7,146.2,M,20.7,M,,*43
$GPGSA,A,3,,,,,,18,19,,26,28,29,,4.3,3.7,1.0*34
$GPGSV,3,1,11,03,04,013,00,07,01,153,00,08,53,094,40,10,16,209,31*77
$GPGSV,3,2,11,15,13,332,39,18,18,327,38,19,21,035,40,21,05,299,00*76
$GPGSV,3,3,11,26,59,278,44,28,61,145,37,29,68,251,30,,,,*45
$PGRME,16.2,M,16.6,M,17.6,M*1A
$GPGLL,6128.778,N,02349.915,E,125813,A*22
$PGRMZ,480,f,3*17
$PGRMM,WGS 84*06
$GPBOD,285.4,T,279.4,M,T012,T013*45
$GPWPL,6017.083,N,02555.500,E,T022*26
$GPRMC,125813,A,6128.781,N,02349.908,E,038.0,331.7,110805,006.0,E*72
$GPRMB,A,0.02,L,T013,T012,6129.236,N,02346.327,E,001.8,284.8,026.1,V*31
$GPGGA,125814,6128.783,N,02349.906,E,1,05,4.9,142.8,M,20.7,M,,*49
$GPGSA,A,3,,,,,,18,19,,26,28,29,,5.7,4.9,1.0*38
$GPGSV,3,1,11,03,04,013,00,07,01,153,00,08,53,094,40,10,16,209,31*77
$GPGSV,3,2,11,15,13,332,40,18,18,327,36,19,21,035,43,21,05,299,31*77
$GPGSV,3,3,11,26,59,278,44,28,61,145,37,29,68,251,42,,,,*40
$PGRME,7.5,M,16.6,M,7.5,M*1F
$GPGLL,6128.789,N,02349.901,E,125814,A*2E
$PGRMZ,469,f,3*10
$PGRMM,WGS 84*06
$GPBOD,285.4,T,279.4,M,T012,T013*45
$GPWPL,6017.083,N,02452.500,E,T021*23
$GPRMC,125815,A,6128.794,N,02349.897,E,037.8,334.5,110805,006.0,E*77
$GPRMB,A,0.03,L,T013,T012,6129.236,N,02346.327,E,001.8,284.5,024.5,V*3B
$GPGGA,125815,6128.795,N,02349.895,E,1,05,1.8,142.4,M,20.7,M,,*4C
$GPGSA,A,3,,,,,,18,19,,26,28,29,,1.8,1.8,1.0*37
$GPGSV,3,1,11,03,04,013,00,07,01,153,00,08,53,094,39,10,16,209,30*78
$GPGSV,3,2,11,15,13,332,41,18,18,327,35,19,21,035,44,21,05,299,33*70
$GPGSV,3,3,11,26,59,278,44,28,61,145,37,29,68,251,43,,,,*41
$PGRME,8.4,M,17.7,M,9.9,M*13
$GPGLL,6128.801,N,02349.889,E,125815,A*21
$PGRMZ,467,f,3*1E
$PGRMM,WGS 84*06
$GPBOD,285.4,T,279.4,M,T012,T013*45
$GPWPL,6116.083,N,02452.500,E,T020*22
$GPRMC,125816,A,6128.805,N,02349.884,E,036.9,335.7,110805,006.0,E*72
$GPRMB,A,0.04,L,T013,T012,6129.236,N,02346.327,E,001.8,284.2,023.0,V*39
$GPGGA,125816,6128.807,N,02349.883,E,1,05,1.8,141.7,M,20.7,M,,*4C
$GPGSA,A,3,,,,,,18,19,,26,28,29,,1.8,1.8,1.0*37
$GPGSV,3,1,11,03,04,013,00,07,01,153,00,08,53,094,38,10,16,209,30*79
$GPGSV,3,2,11,15,13,332,41,18,18,327,33,19,21,035,44,21,05,299,34*71
$GPGSV,3,3,11,26,59,278,44,28,61,145,38,29,68,251,45,,,,*48
$PGRME,8.4,M,17.7,M,9.9,M*13
$GPGLL,6128.812,N,02349.877,E,125817,A*20
$PGRMZ,465,f,3*1C
$PGRMM,WGS 84*06
$GPBOD,285.4,T,279.4,M,T012,T013*45
$GPWPL,6016.083,S,02452.500,E,T019*34
$GPRMC,125817,A,6128.817,N,02349.873,E,036.5,335.5,110805,006.0,E*76
$GPRMB,A,0.05,L,T013,T012,6129.236,N,02346.327,E,001.8,283.9,022.7,V*32
$GPGGA,125818,6128.819,N,02349.871,E,1,05,1.8,141.7,M,20.7,M,,*40
$GPGSA,A,3,,,,,,18,19,,26,28,29,,1.8,1.8,1.0*37
$GPGSV,3,1,11,03,04,013,00,07,01,153,00,08,53,094,38,10,16,209,35*7C
$GPGSV,3,2,11,15,13,332,42,18,18,327,32,19,21,035,44,21,05,299,34*73
$GPGSV,3,3,11,26,59,278,44,28,61,145,39,29,68,251,46,,,,*4A
$PGRME,7.5,M,16.6,M,7.5,M*1F
$GPGLL,6128.824,N,02349.866,E,125818,A*2A
$PGRMZ,465,f,3*1C
$PGRMM,WGS 84*06
$GPBOD,285.4,T,279.4,M,T012,T013*45
$GPWPL,6016.083,N,02452.500,E,T018*28
$GPRMC,125819,A,6128.828,N,02349.861,E,035.9,336.0,110805,006.0,E*7E
$GPRMB,A,0.06,L,T013,T012,6129.236,N,02346.327,E,001.7,283.5,022.0,V*35
$GPGGA,125819,6128.830,N,02349.860,E,1,05,1.8,141.7,M,20.7,M,,*4A
$GPGSA,A,3,,,,,,18,19,,26,28,29,,1.8,1.8,1.0*37
$GPGSV,3,1,11,03,04,013,00,07,01,153,00,08,53,094,37,10,16,209,37*71
$GPGSV,3,2,11,15,13,332,42,18,18,327,31,19,21,035,45,21,05,299,34*71
$GPGSV,3,3,11,26,59,277,44,28,61,145,39,29,68,251,46,,,,*45
$PGRME,7.5,M,16.6,M,7.5,M*1F
$GPGLL,6128.835,N,02349.854,E,125819,A*2A
$PGRMZ,465,f,3*1C
$PGRMM,WGS 84*06
$GPBOD,285.4,T,279.4,M,T012,T013*45
$GPWPL,6013.283,N,02456.650,E,T017*22
$GPRMC,125820,A,6128.840,N,02349.850,E,035.6,336.0,110805,006.0,E*77
$GPRMB,A,0.07,L,T013,T012,6129.236,N,02346.327,E,001.7,283.2,021.6,V*36
$GPGGA,125820,6128.841,N,02349.848,E,1,05,1.8,141.7,M,20.7,M,,*4C
$GPGSA,A,3,,,,,,18,19,,26,28,29,,1.8,1.8,1.0*37
$GPGSV,3,1,11,03,04,013,00,07,01,153,00,08,53,094,37,10,16,209,38*7E
$GPGSV,3,2,11,15,13,332,42,18,18,327,31,19,21,035,45,21,05,299,33*76
$GPGSV,3,3,11,26,59,277,44,28,61,145,39,29,68,251,46,,,,*45
$PGRME,7.5,M,16.6,M,7.5,M*1F
$GPGLL,6128.847,N,02349.842,E,125821,A*23
$PGRMZ,465,f,3*1C
$PGRMM,WGS 84*06
$GPBOD,285.4,T,279.4,M,T012,T013*45
$GPWPL,6123.283,N,02430.650,E,T016*21
$GPRMC,125821,A,6128.851,N,02349.838,E,035.8,335.8,110805,006.0,E*7D
$GPRMB,A,0.07,L,T013,T012,6129.236,N,02346.327,E,001.7,282.9,021.7,V*3D
$GPGGA,125821,6128.853,N,02349.836,E,1,05,2.2,141.7,M,20.7,M,,*4E
$GPGSA,A,3,,,,,,18,19,,26,28,29,,2.2,2.2,1.0*37
$GPGSV,3,1,11,03,04,013,30,07,01,153,00,08,53,094,37,10,16,209,39*7C
$GPGSV,3,2,11,15,13,332,42,18,18,327,32,19,21,035,45,21,05,299,33*75
$GPGSV,3,3,11,26,59,277,45,28,61,145,40,29,68,251,46,,,,*4A
$PGRME,8.4,M,17.7,M,9.9,M*13
$GPGLL,6128.858,N,02349.831,E,125822,A*2A
$PGRMZ,463,f,3*1A
$PGRMM,WGS 84*06
$GPBOD,285.4,T,279.4,M,T012,T013*45
$GPWPL,0000.000,N,00000.000,W,T015*39
$GPRMC,125823,A,6128.863,N,02349.827,E,035.3,336.5,110805,006.0,E*75
$GPRMB,A,0.08,L,T013,T012,6129.236,N,02346.327,E,001.7,282.6,020.8,V*33
$GPGGA,125823,6128.864,N,02349.825,E,1,05,2.2,141.0,M,20.7,M,,*4D
$GPGSA,A,3,,,,,,18,19,,26,28,29,,1.8,1.8,1.0*37
$GPGSV,3,1,11,03,04,013,30,07,01,153,00,08,53,094,36,10,16,209,39*7D
$GPGSV,3,2,11,15,13,332,42,18,18,327,32,19,21,035,45,21,05,299,32*74
$GPGSV,3,3,11,26,59,277,44,28,61,145,40,29,68,251,46,,,,*4B
$PGRME,7.5,M,16.6,M,7.5,M*1F
$GPGLL,6128.870,N,02349.820,E,125823,A*21
$PGRMZ,463,f,3*1A
$PGRMM,WGS 84*06
$GPBOD,285.4,T,279.4,M,T012,T013*45
$GPWPL,0009.000,N,02430.650,E,T014*25
$GPRMC,125824,A,6128.874,N,02349.816,E,035.4,336.9,110805,006.0,E*7D
$GPRMB,A,0.09,L,T013,T012,6129.236,N,02346.327,E,001.7,282.2,020.6,V*38
$GPGGA,125824,6128.876,N,02349.814,E,1,05,1.8,141.0,M,20.7,M,,*42
$GPGSA,A,3,,,,,,18,19,,26,28,29,,1.8,1.8,1.0*37
$GPGSV,3,1,11,03,04,013,30,07,01,153,00,08,53,094,38,10,16,209,40*7D
$GPGSV,3,2,11,15,13,332,42,18,18,327,34,19,21,035,45,21,05,299,31*71
$GPGSV,3,3,11,26,59,277,44,28,61,145,40,29,68,251,46,,,,*4B
$PGRME,8.4,M,17.7,M,10.0,M*22
$GPGLL,6128.881,N,02349.810,E,125824,A*2B
$PGRMZ,459,f,3*13
$PGRMM,WGS 84*06
$GPBOD,285.4,T,279.4,M,T012,T013*45
$GPWPL,6123.285,N,02430.651,E,T013*23
$GPRMC,125825,A,6128.885,N,02349.807,E,034.2,338.9,110805,006.0,E*7B
$GPRMB,A,0.10,L,T013,T012,6129.236,N,02346.327,E,001.7,281.9,018.6,V*33
$GPGGA,125825,6128.887,N,02349.805,E,1,05,1.8,140.0,M,20.7,M,,*4C
$GPGSA,A,3,,,,,,18,19,,26,28,29,,1.8,1.8,1.0*37
$GPGSV,3,1,11,03,04,013,30,07,01,153,00,08,53,094,37,10,16,209,40*72
$GPGSV,3,2,11,15,13,332,42,18,18,327,33,19,21,035,45,21,05,299,31*76
$GPGSV,3,3,11,26,59,277,44,28,61,145,40,29,68,251,46,,,,*4B
$PGRME,7.5,M,16.6,M,7.5,M*1F
$GPGLL,6128.891,N,02349.800,E,125826,A*29
$PGRMZ,454,f,3*1E
$PGRMM,WGS 84*06
$GPBOD,285.4,T,279.4,M,T012,T013*45
$GPWPL,6129.236,N,02346.327,E,T012*22
$GPRMC,125826,A,6128.896,N,02349.797,E,034.1,339.1,110805,006.0,E*76
$GPRMB,A,0.11,L,T013,T012,6129.236,N,02346.327,E,001.7,281.6,018.4,V*3F
$GPGGA,125827,6128.898,N,02349.795,E,1,05,2.1,138.5,M,20.7,M,,*46
$GPGSA,A,3,,,,,,18,19,,26,28,29,,2.5,2.1,1.6*35
$GPGSV,3,1,11,03,04,013,00,07,01,153,00,08,53,094,38,10,16,209,40*7E
$GPGSV,3,2,11,15,13,332,42,18,18,327,37,19,21,035,44,21,05,299,31*73
$GPGSV,3,3,11,26,59,277,44,28,62,144,40,29,68,251,46,,,,*49
$PGRME,8.4,M,17.7,M,10.0,M*22
$GPGLL,6128.902,N,02349.791,E,125827,A*24
$PGRMZ,450,f,3*1A
$PGRMM,WGS 84*06
$GPBOD,285.4,T,279.4,M,T012,T013*45
$GPWPL,6114.236,N,02346.327,E,T011*2F
$GPRMC,125828,A,6128.907,N,02349.787,E,033.9,339.2,110805,006.0,E*7C
$GPRMB,A,0.12,L,T013,T012,6129.236,N,02346.327,E,001.7,281.3,018.1,V*3C
$GPGGA,125828,6128.909,N,02349.786,E,1,05,2.3,137.1,M,20.7,M,,*4B
$GPGSA,A,3,,,,,,18,19,,26,28,29,,2.8,2.3,1.0*3C
$GPGSV,3,1,11,03,04,013,00,07,01,153,00,08,53,094,37,10,16,209,39*7F
$GPGSV,3,2,11,15,13,332,42,18,18,327,38,19,21,035,43,21,05,299,31*7B
$GPGSV,3,3,11,26,59,277,45,28,62,144,39,29,68,251,46,,,,*46
$PGRME,8.7,M,16.6,M,10.1,M*20
$GPGLL,6128.914,N,02349.782,E,125829,A*2F
$PGRMZ,450,f,3*1A
$PGRMM,WGS 84*06
$GPBOD,285.4,T,279.4,M,T012,T013*45
$GPWPL,6220.236,N,02346.327,E,T010*2A
$GPRMC,125829,A,6128.918,N,02349.778,E,033.5,339.5,110805,006.0,E*78
$GPRMB,A,0.13,L,T013,T012,6129.236,N,02346.327,E,001.7,280.9,017.5,V*3D
$GPGGA,125829,6128.919,N,02349.776,E,1,05,2.5,135.1,M,20.7,M,,*40
$GPGSA,A,3,,,,,,18,19,,26,28,29,,3.3,2.5,1.6*36
$GPGSV,3,1,11,03,04,013,00,07,01,153,00,08,53,094,36,10,16,209,39*7E
$GPGSV,3,2,11,15,13,332,41,18,18,327,39,19,21,035,43,21,05,299,31*79
$GPGSV,3,3,11,26,59,277,45,28,62,144,39,29,68,251,46,,,,*46
$PGRME,9.4,M,17.7,M,12.3,M*22
$GPGLL,6128.925,N,02349.772,E,125830,A*2A
$PGRMZ,437,f,3*1B
$PGRMM,WGS 84*06
$GPBOD,285.4,T,279.4,M,T012,T013*45
$GPWPL,6120.236,N,02346.327,E,T009*21
$GPRMC,125830,A,6128.928,N,02349.768,E,033.4,339.8,110805,006.0,E*7E
$GPRMB,A,0.14,L,T013,T012,6129.236,N,02346.327,E,001.7,280.6,017.1,V*31
$GPGGA,125831,6128.930,N,02349.767,E,1,05,2.6,133.2,M,20.7,M,,*44
$GPGSA,A,3,,,,,,18,19,,26,28,29,,3.8,2.6,2.1*3A
$GPGSV,3,1,11,03,04,013,00,07,01,153,00,08,53,094,35,10,16,209,37*73
$GPGSV,3,2,11,15,13,332,41,18,18,327,41,19,21,035,44,21,05,299,30*70
$GPGSV,3,3,11,26,59,277,45,28,62,144,37,29,68,249,45,,,,*42
$PGRME,14.3,M,24.4,M,21.3,M*1A
$GPGLL,6128.935,N,02349.762,E,125831,A*2B
$PGRMZ,432,f,3*1E
$PGRMM,WGS 84*06
$GPBOD,285.4,T,279.4,M,T012,T013*45
$GPWPL,6129.234,N,02346.317,E,T008*28
$GPRMC,125832,A,6128.939,N,02349.759,E,033.4,340.1,110805,006.0,E*79
$GPRMB,A,0.15,L,T013,T012,6129.236,N,02346.327,E,001.7,280.2,016.9,V*3D
$GPGGA,125832,6128.940,N,02349.757,E,1,05,3.9,129.7,M,20.7,M,,*43
$GPGSA,A,3,,,,,,18,19,,26,28,29,,6.2,3.9,4.3*3F
$GPGSV,3,1,11,03,04,013,00,07,01,153,00,08,53,094,33,10,16,209,36*74
$GPGSV,3,2,11,15,13,332,41,18,18,327,41,19,21,035,44,21,05,299,30*70
$GPGSV,3,3,11,26,59,277,45,28,62,144,36,29,68,249,46,,,,*40
$PGRME,14.5,M,24.7,M,22.3,M*1C
$GPGLL,6128.945,N,02349.753,E,125833,A*2C
$PGRMZ,426,f,3*1B
$PGRMM,WGS 84*06
$GPBOD,285.4,T,279.4,M,T012,T013*45
$GPWPL,6157.564,N,02406.158,E,T007*26
$GPRMC,125833,A,6128.951,N,02349.748,E,033.4,340.4,110805,006.0,E*73
$GPRMB,A,0.16,L,T013,T012,6129.236,N,02346.327,E,001.7,279.9,016.5,V*3F
$GPGGA,125833,6128.952,N,02349.747,E,1,05,3.9,127.9,M,20.7,M,,*40
$GPGSA,A,3,,,,,,18,19,,26,28,29,,6.4,3.9,4.6*3C
$GPGSV,3,1,11,03,04,013,00,07,01,153,00,08,53,094,31,10,16,209,35*75
$GPGSV,3,2,11,15,13,332,40,18,18,327,41,19,21,035,43,21,05,299,30*76
$GPGSV,3,3,11,26,59,277,45,28,62,144,35,29,68,249,46,,,,*43
$PGRME,17.1,M,16.6,M,24.2,M*1C
$GPGLL,6128.958,N,02349.743,E,125834,A*26
$PGRMZ,420,f,3*1D
$PGRMM,WGS 84*06
$GPBOD,285.4,T,279.4,M,T012,T013*45
$GPWPL,6145.919,N,02345.544,E,T006*2B
$GPRMC,125834,A,6128.962,N,02349.740,E,033.3,340.2,110805,006.0,E*7D
$GPRMB,A,0.17,L,T013,T012,6129.236,N,02346.327,E,001.7,279.5,016.4,V*33
$GPGGA,125835,6128.964,N,02349.738,E,1,05,4.5,127.9,M,20.7,M,,*40
$GPGSA,A,3,,,,,,18,19,,26,28,29,,6.8,4.5,1.0*38
$GPGSV,3,1,11,03,04,013,00,07,01,153,00,08,53,094,30,10,16,209,35*74
$GPGSV,3,2,11,15,13,332,41,18,18,327,41,19,21,035,42,21,05,299,30*76
$GPGSV,3,3,11,26,59,277,45,28,62,144,35,29,68,249,46,,,,*43
$PGRME,21.1,M,23.4,M,31.9,M*12
$GPGLL,6128.969,N,02349.734,E,125835,A*25
$PGRMZ,416,f,3*18
$PGRMM,WGS 84*06
$GPBOD,285.4,T,279.4,M,T012,T013*45
$GPWPL,6130.198,N,02342.702,E,T005*2C
$GPRMC,125835,A,6128.973,N,02349.731,E,033.3,340.5,110805,006.0,E*7D
$GPRMB,A,0.18,L,T013,T012,6129.236,N,02346.327,E,001.7,279.2,016.0,V*3F
$GPGGA,125835,6128.975,N,02349.730,E,1,05,5.6,127.0,M,20.7,M,,*43
$GPGSA,A,3,,,,,,18,19,,26,28,29,,8.7,5.6,3.1*38
$GPGSV,3,1,11,03,04,013,00,07,01,153,00,08,53,094,30,10,16,209,34*75
$GPGSV,3,2,11,15,13,332,41,18,18,327,41,19,21,035,41,21,05,299,30*75
$GPGSV,3,3,11,26,59,277,45,28,62,144,35,29,68,249,46,,,,*43
$PGRME,21.1,M,23.4,M,31.9,M*12
$GPGLL,6128.980,N,02349.726,E,125835,A*21
$PGRMZ,417,f,3*19
$PGRMM,WGS 84*06
$GPBOD,285.4,T,279.4,M,T012,T013*45
$GPWPL,6216.183,N,02619.685,E,T004*25
$GPRMC,125837,A,6128.984,N,02349.723,E,033.3,340.5,110805,006.0,E*74
$GPRMB,A,0.19,L,T013,T012,6129.236,N,02346.327,E,001.6,278.8,016.0,V*34
$GPGGA,125837,6128.986,N,02349.721,E,1,05,5.6,127.1,M,20.7,M,,*4C
$GPGSA,A,3,,,,,,18,19,,26,28,29,,2.8,2.8,1.0*37
$GPGSV,3,1,11,03,04,013,00,07,01,153,00,08,53,094,35,10,16,209,34*70
$GPGSV,3,2,11,15,13,332,41,18,18,327,40,19,21,035,41,21,05,299,30*74
$GPGSV,3,3,11,26,59,277,46,28,62,144,37,29,68,249,46,,,,*42
$PGRME,11.1,M,16.6,M,11.1,M*1F
$GPGLL,6128.991,N,02349.718,E,125837,A*2E
$PGRMZ,417,f,3*19
$PGRMM,WGS 84*06
$GPBOD,285.4,T,279.4,M,T012,T013*45
$GPWPL,6215.064,N,02603.837,E,T003*25
$GPRMC,125838,A,6128.995,N,02349.715,E,032.1,341.4,110805,006.0,E*7D
$GPRMB,A,0.20,L,T013,T012,6129.236,N,02346.327,E,001.6,278.4,015.2,V*33
$GPGGA,125838,6128.996,N,02349.714,E,1,05,2.9,126.0,M,20.7,M,,*4C
$GPGSA,A,3,,,,,,18,19,,26,28,29,,3.3,2.9,1.6*3A
$GPGSV,3,1,11,03,04,013,00,07,01,153,00,08,53,094,36,10,16,209,33*74
$GPGSV,3,2,11,15,13,332,40,18,18,327,40,19,21,035,39,21,05,299,30*7A
$GPGSV,3,3,11,26,59,277,46,28,62,144,40,29,68,249,46,,,,*42
$PGRME,11.7,M,17.7,M,13.2,M*18
$GPGLL,6129.001,N,02349.710,E,125839,A*29
$PGRMZ,409,f,3*16
$PGRMM,WGS 84*06
$GPBOD,285.4,T,279.4,M,T012,T013*45
$GPWPL,6151.098,N,02510.924,E,T002*26
$GPRMC,125840,A,6129.005,N,02349.707,E,031.2,341.9,110805,006.0,E*7D
$GPRMB,A,0.21,L,T013,T012,6129.236,N,02346.327,E,001.6,278.1,013.2,V*31
$GPGGA,125840,6129.006,N,02349.706,E,1,05,3.1,124.1,M,20.7,M,,*4B
$GPGSA,A,3,,,,,,18,19,,26,28,29,,4.2,3.1,2.6*36
$GPGSV,3,1,11,03,04,013,00,07,01,153,00,08,53,094,35,10,16,209,33*77
$GPGSV,3,2,11,15,13,332,40,18,18,327,39,19,21,035,39,21,05,299,30*74
$GPGSV,3,3,11,26,59,277,46,28,62,144,40,29,68,249,46,,,,*42
$PGRME,11.7,M,17.7,M,13.2,M*18
$GPGLL,6129.011,N,02349.703,E,125841,A*25
$PGRMZ,407,f,3*18
$PGRMM,WGS 84*06
$GPBOD,285.4,T,279.4,M,T012,T013*45
$GPWPL,6129.271,N,02346.376,E,T001*27
$GPRMC,125841,A,6129.015,N,02349.701,E,030.3,342.4,110805,006.0,E*75
$GPRMB,A,0.21,L,T013,T012,6129.236,N,02346.327,E,001.6,277.8,013.2,V*37
$GPGGA,125841,6129.014,N,02349.701,E,1,05,1.9,124.3,M,20.7,M,,*46
$GPGSA,A,3,,,,,,18,19,,26,28,29,,1.9,1.9,1.0*37
$GPGSV,3,1,11,03,04,013,00,07,01,153,00,08,53,094,37,10,16,209,32*74
$GPGSV,3,2,11,15,13,332,41,18,18,327,39,19,21,035,39,21,05,299,30*75
$GPGSV,3,3,11,26,59,277,46,28,62,144,40,29,68,249,46,,,,*42
$PGRME,8.4,M,17.8,M,10.0,M*2D
$GPGLL,6129.016,N,02349.699,E,125842,A*23
$PGRMZ,402,f,3*1D
$PGRMM,WGS 84*06
$GPBOD,285.4,T,279.4,M,T012,T013*45
$GPRTE,4,1,c,0,T030,T029,T028,T027,T026,T025,T024,T023,T022*49
$GPRTE,4,2,c,0,T021,T020,T019,T018,T017,T016,T015,T014,T013*4B
$GPRTE,4,3,c,0,T012,T011,T010,T009,T008,T007,T006,T005,T004*4B
$GPRTE,4,4,c,0,T003,T002,T001*4F
$GPWPL,6016.083,N,02452.500,E,T030*22
$GPRMC,125843,A,6129.021,N,02349.697,E,018.3,344.6,110805,006.0,E*70
$GPRMB,A,0.22,L,T013,T012,6129.236,N,02346.327,E,001.6,277.6,007.2,V*3F
$GPGGA,125843,6129.021,N,02349.696,E,1,05,2.3,122.5,M,20.7,M,,*44
$GPGSA,A,3,,,,,,18,19,,26,28,29,,3.0,2.3,2.1*37
$GPGSV,3,1,11,03,04,013,00,07,01,153,00,08,53,094,40,10,16,209,31*77
$GPGSV,3,2,11,15,13,332,41,18,18,327,39,19,21,035,39,21,05,299,30*75
$GPGSV,3,3,11,26,59,277,46,28,62,144,41,29,68,249,47,,,,*42
$PGRME,8.4,M,17.8,M,10.0,M*2D
$GPGLL,6129.023,N,02349.694,E,125844,A*2E
$PGRMZ,396,f,3*17
$PGRMM,WGS 84*06
$GPBOD,285.4,T,279.4,M,T012,T013*45
$GPWPL,6123.283,N,02430.650,E,T029*2D
$GPRMC,125844,A,6129.024,N,02349.692,E,014.1,341.0,110805,006.0,E*7A
$GPRMB,A,0.22,L,T013,T012,6129.236,N,02346.327,E,001.6,277.5,006.3,V*3C
$GPGGA,125844,6129.025,N,02349.692,E,1,05,2.5,119.1,M,20.7,M,,*49
$GPGSA,A,3,,,,,,18,19,,26,28,29,,3.5,2.5,2.6*33
$GPGSV,3,1,11,03,04,013,00,07,01,153,00,08,53,094,41,10,16,209,31*76
$GPGSV,3,2,11,15,13,332,41,18,18,327,39,19,21,035,39,21,05,299,30*75
$GPGSV,3,3,11,26,59,277,45,28,62,144,41,29,68,249,46,,,,*40
$PGRME,8.4,M,17.8,M,10.0,M*2D
$GPGLL,6129.027,N,02349.690,E,125845,A*2F
$PGRMZ,390,f,3*11
$PGRMM,WGS 84*06
$GPBOD,285.4,T,279.4,M,T012,T013*45
$GPWPL,6023.283,N,02430.650,E,T028*2D
$GPRMC,125845,A,6129.029,N,02349.689,E,014.1,341.0,110805,006.0,E*7C
$GPRMB,A,0.23,L,T013,T012,6129.236,N,02346.327,E,001.6,277.4,006.3,V*3C
$GPGGA,125845,6129.029,N,02349.689,E,1,05,2.7,118.0,M,20.7,M,,*4C
$GPGSA,A,3,,,,,,18,19,,26,28,29,,4.1,2.7,3.2*37
$GPGSV,3,1,11,03,04,013,00,07,01,153,00,08,53,094,44,10,16,209,31*73
$GPGSV,3,2,11,15,13,332,41,18,18,327,41,19,21,035,37,21,05,299,30*74
$GPGSV,3,3,11,26,59,277,42,28,62,144,40,29,68,249,45,,,,*45
$PGRME,14.3,M,25.8,M,21.7,M*13
$GPGLL,6129.024,N,02349.688,E,125846,A*26
$PGRMZ,377,f,3*18
$PGRMM,WGS 84*06
$GPBOD,285.4,T,279.4,M,T012,T013*45
$GPWPL,6123.283,N,02430.650,E,T027*23
$GPRMC,125847,A,6129.022,N,02349.687,E,018.8,187.4,110805,006.0,E*72
$GPRMB,A,0.22,L,T013,T012,6129.236,N,02346.327,E,001.6,277.6,-000.0,V*17
$GPGGA,125847,6129.023,N,02349.687,E,1,05,3.9,113.6,M,20.7,M,,*48
$GPGSA,A,3,,,,,,18,19,,26,28,29,,6.5,3.9,5.2*38
$GPGSV,3,1,11,03,04,013,00,07,01,153,00,08,53,094,44,10,16,209,30*72
$GPGSV,3,2,11,15,13,332,41,18,18,327,41,19,21,035,36,21,05,299,30*75
$GPGSV,3,3,11,26,59,277,42,28,62,144,38,29,68,249,44,,,,*4B
$PGRME,14.5,M,26.0,M,22.8,M*12
$GPGLL,6129.025,N,02349.686,E,125847,A*28
$PGRMZ,370,f,3*1F
$PGRMM,WGS 84*06
$GPBOD,285.4,T,279.4,M,T012,T013*45
$GPWPL,6017.083,N,02452.500,E,T026*24
$GPRMC,125848,A,6129.026,N,02349.686,E,007.4,346.0,110805,006.0,E*71
$GPRMB,A,0.22,L,T013,T012,6129.236,N,02346.327,E,001.6,277.5,003.8,V*32
$GPGGA,125848,6129.026,N,02349.685,E,1,05,3.9,112.2,M,20.7,M,,*45
$GPGSA,A,3,,,,,,18,19,,26,28,29,,6.7,3.9,5.4*3C
$GPGSV,3,1,11,03,04,013,00,07,01,153,00,08,53,094,43,10,16,209,30*75
$GPGSV,3,2,11,15,13,332,41,18,18,327,41,19,21,035,36,21,05,299,30*75
$GPGSV,3,3,11,26,59,277,41,28,62,144,38,29,68,249,44,,,,*48
$PGRME,14.5,M,26.0,M,22.8,M*12
$GPGLL,6129.027,N,02349.685,E,125849,A*27
$PGRMZ,363,f,3*1D
$PGRMM,WGS 84*06
$GPBOD,285.4,T,279.4,M,T012,T013*45
$GPWPL,6017.083,S,02453.500,E,T025*3B
$GPRMC,125849,A,6129.027,N,02349.685,E,006.2,346.9,110805,006.0,E*7C
$GPRMB,A,0.22,L,T013,T012,6129.236,N,02346.327,E,001.6,277.4,002.2,V*38
$GPGGA,125849,6129.028,N,02349.684,E,1,05,3.9,110.0,M,20.7,M,,*4B
$GPGSA,A,3,,,,,,18,19,,26,28,29,,6.8,3.9,5.5*32
$GPGSV,3,1,11,03,04,013,00,07,01,153,00,08,53,094,43,10,16,209,31*74
$GPGSV,3,2,11,15,13,332,40,18,18,327,39,19,21,035,36,21,05,299,30*7B
$GPGSV,3,3,11,26,59,277,42,28,62,144,37,29,68,249,44,,,,*44
$PGRME,14.5,M,26.0,M,22.8,M*12
$GPGLL,6129.028,N,02349.684,E,125850,A*21
$PGRMZ,357,f,3*1A
$PGRMM,WGS 84*06
$GPBOD,285.4,T,279.4,M,T012,T013*45
$GPWPL,6018.083,N,02453.500,E,T024*28
$GPRMC,125851,A,6129.029,N,02349.683,E,004.2,339.9,110805,006.0,E*77
$GPRMB,A,0.23,L,T013,T012,6129.236,N,02346.327,E,001.6,277.4,001.9,V*31
$GPGGA,125851,6129.028,N,02349.684,E,1,05,4.1,107.8,M,20.7,M,,*43
$GPGSA,A,3,,,,,,18,19,,26,28,29,,5.7,4.1,1.0*30
$GPGSV,3,1,11,03,04,013,00,07,01,153,00,08,53,094,44,10,16,209,31*73
$GPGSV,3,2,11,15,13,332,40,18,18,327,39,19,21,035,37,21,05,299,31*7B
$GPGSV,3,3,11,26,59,277,40,28,62,144,36,29,68,249,44,,,,*47
$PGRME,14.5,M,26.0,M,22.8,M*12
$GPGLL,6129.028,N,02349.683,E,125851,A*27
$PGRMZ,353,f,3*1E
$PGRMM,WGS 84*06
$GPBOD,285.4,T,279.4,M,T012,T013*45
$GPWPL,6017.083,N,02452.500,W,T023*33
$GPRMC,125852,A,6129.028,N,02349.683,E,002.2,326.6,110805,006.0,E*72
$GPRMB,A,0.23,L,T013,T012,6129.236,N,02346.327,E,001.6,277.4,001.3,V*3B
$GPGGA,125852,6129.028,N,02349.683,E,1,05,4.1,105.9,M,20.7,M,,*44
$GPGSA,A,3,,,,,,18,19,,26,28,29,,5.9,4.1,1.6*38
$GPGSV,3,1,11,03,04,013,00,07,01,153,00,08,53,094,44,10,16,209,31*73
$GPGSV,3,2,11,15,13,332,40,18,18,327,39,19,21,035,37,21,05,299,31*7B
$GPGSV,3,3,11,26,59,277,40,28,62,144,35,29,68,249,44,,,,*44
$PGRME,14.5,M,26.0,M,22.8,M*12
$GPGLL,6129.028,N,02349.682,E,125853,A*24
$PGRMZ,344,f,3*18
$PGRMM,WGS 84*06
$GPBOD,285.4,T,279.4,M,T012,T013*45
$GPWPL,6017.083,N,02555.500,E,T022*26
$GPRMC,125853,A,6129.027,N,02349.682,E,000.0,326.6,110805,006.0,E*7D
$GPRMB,A,0.22,L,T013,T012,6129.236,N,02346.327,E,001.6,277.4,,V*16
$GPGGA,125853,6129.028,N,02349.682,E,1,05,4.2,104.5,M,20.7,M,,*4A
$GPGSA,A,3,,,,,,18,19,,26,28,29,,5.7,4.2,1.0*33
$GPGSV,3,1,11,03,04,013,00,07,01,153,00,08,53,094,43,10,16,209,31*74
$GPGSV,3,2,11,15,13,332,40,18,18,327,39,19,21,035,37,21,05,299,30*7A
$GPGSV,3,3,11,26,59,277,41,28,62,144,36,29,68,249,44,,,,*46
$PGRME,14.5,M,26.0,M,22.8,M*12
$GPGLL,6129.028,N,02349.682,E,125854,A*23
$PGRMZ,342,f,3*1E
$PGRMM,WGS 84*06
$GPBOD,285.4,T,279.4,M,T012,T013*45
$GPWPL,6017.083,N,02452.500,E,T021*23
$GPRMC,125854,A,6129.028,N,02349.682,E,000.0,326.6,110805,006.0,E*75
$GPRMB,A,0.22,L,T013,T012,6129.236,N,02346.327,E,001.6,277.4,,V*16
$GPGGA,125854,6129.028,N,02349.682,E,1,05,2.8,104.2,M,20.7,M,,*46
$GPGSA,A,3,,,,,,18,19,,26,28,29,,2.8,2.8,1.0*37
$GPGSV,3,1,11,03,03,012,00,07,01,153,00,08,53,094,41,10,16,209,31*70
$GPGSV,3,2,11,15,13,332,41,18,18,327,38,19,21,035,35,21,05,299,31*79
$GPGSV,3,3,11,26,59,277,44,28,62,144,42,29,68,249,45,,,,*41
$PGRME,11.1,M,16.6,M,11.1,M*1F
$GPGLL,6129.027,N,02349.683,E,125855,A*2C
$PGRMZ,342,f,3*1E
$PGRMM,WGS 84*06
$GPBOD,285.4,T,279.4,M,T012,T013*45
$GPWPL,6116.083,N,02452.500,E,T020*22
$GPRMC,125856,A,6129.027,N,02349.682,E,000.0,326.6,110805,006.0,E*78
$GPRMB,A,0.22,L,T013,T012,6129.236,N,02346.327,E,001.6,277.4,,V*16
$GPGGA,125856,6129.027,N,02349.683,E,1,05,2.8,104.1,M,20.7,M,,*49
$GPGSA,A,3,,,,,,18,19,,26,28,29,,2.8,2.8,1.0*37
$GPGSV,3,1,11,03,03,012,00,07,01,153,00,08,53,094,40,10,16,209,31*71
$GPGSV,3,2,11,15,13,332,41,18,18,327,38,19,21,035,34,21,05,299,31*78
$GPGSV,3,3,11,26,59,277,45,28,62,144,43,29,68,249,45,,,,*41
$PGRME,11.1,M,16.6,M,11.1,M*1F
$GPGLL,6129.027,N,02349.683,E,125857,A*2E
$PGRMZ,341,f,3*1D
$PGRMM,WGS 84*06
$GPBOD,285.4,T,279.4,M,T012,T013*45
$GPWPL,6016.083,S,02452.500,E,T019*34
$GPRMC,125857,A,6129.027,N,02349.683,E,000.0,326.6,110805,006.0,E*78
$GPRMB,A,0.22,L,T013,T012,6129.236,N,02346.327,E,001.6,277.4,,V*16
$GPGGA,125857,6129.026,N,02349.682,E,1,05,2.9,103.1,M,20.7,M,,*4E
$GPGSA,A,3,,,,,,18,19,,26,28,29,,3.3,2.9,1.6*3A
$GPGSV,3,1,11,03,03,012,00,07,01,153,00,08,53,094,39,10,16,209,31*7F
$GPGSV,3,2,11,15,13,332,41,18,18,327,37,19,21,035,34,21,05,299,31*77
$GPGSV,3,3,11,26,59,277,45,28,62,144,43,29,68,249,46,,,,*42
$PGRME,11.7,M,17.8,M,13.3,M*16
$GPGLL,6129.026,N,02349.682,E,125858,A*21
$PGRMZ,335,f,3*1E
$PGRMM,WGS 84*06
$GPBOD,285.4,T,279.4,M,T012,T013*45
$GPWPL,6016.083,N,02452.500,E,T018*28
$GPRMC,125858,A,6129.026,N,02349.682,E,000.0,326.6,110805,006.0,E*77
$GPRMB,A,0.22,L,T013,T012,6129.236,N,02346.327,E,001.6,277.5,,V*17
$GPGGA,125858,6129.026,N,02349.682,E,1,05,3.0,102.1,M,20.7,M,,*48
$GPGSA,A,3,,,,,,18,19,,26,28,29,,3.8,3.0,2.1*3D
$GPGSV,3,1,11,03,03,012,00,07,01,153,00,08,53,094,38,10,16,209,31*7E
$GPGSV,3,2,11,15,13,332,41,18,18,327,37,19,21,035,33,21,05,299,31*70
$GPGSV,3,3,11,26,59,277,46,28,62,144,44,29,68,249,46,,,,*46
$PGRME,11.7,M,17.8,M,13.3,M*16
$GPGLL,6129.025,N,02349.681,E,125859,A*20
$PGRMZ,332,f,3*19
$PGRMM,WGS 84*06
$GPBOD,285.4,T,279.4,M,T012,T013*45
$GPWPL,6013.283,N,02456.650,E,T017*22
$GPRMC,125900,A,6129.025,N,02349.681,E,000.0,326.6,110805,006.0,E*7B
$GPRMB,A,0.22,L,T013,T012,6129.236,N,02346.327,E,001.6,277.5,,V*17
$GPGGA,125900,6129.025,N,02349.681,E,1,05,3.1,101.2,M,20.7,M,,*45
$GPGSA,A,3,,,,,,18,19,,26,28,29,,4.2,3.1,2.6*36
$GPGSV,3,1,11,03,03,012,00,07,01,153,00,08,53,094,38,10,16,209,30*7F
$GPGSV,3,2,11,15,13,332,41,18,18,327,37,19,21,035,33,21,05,299,31*70
$GPGSV,3,3,11,26,59,277,46,28,62,144,44,29,68,249,46,,,,*46
$PGRME,11.1,M,16.6,M,11.1,M*1F
$GPGLL,6129.025,N,02349.681,E,125900,A*2D
$PGRMZ,332,f,3*19
$PGRMM,WGS 84*06
$GPBOD,285.4,T,279.4,M,T012,T013*45
$GPWPL,6123.283,N,02430.650,E,T016*21
$GPRMC,125901,A,6129.025,N,02349.681,E,000.0,326.6,110805,006.0,E*7A
$GPRMB,A,0.22,L,T013,T012,6129.236,N,02346.327,E,001.6,277.5,,V*17
$GPGGA,125901,6129.025,N,02349.681,E,1,05,2.9,101.1,M,20.7,M,,*4E
$GPGSA,A,3,,,,,,18,19,,26,28,29,,3.3,2.9,1.6*3A
$GPGSV,3,1,11,03,03,012,00,07,01,153,00,08,53,094,39,10,16,209,30*7E
$GPGSV,3,2,11,15,13,332,41,18,18,327,37,19,21,035,33,21,05,299,30*71
$GPGSV,3,3,11,26,59,277,46,28,62,144,45,29,68,249,46,,,,*47
$PGRME,11.7,M,17.8,M,13.3,M*16
$GPGLL,6129.025,N,02349.681,E,125902,A*2F
$PGRMZ,331,f,3*1A
$PGRMM,WGS 84*06
$GPBOD,285.4,T,279.4,M,T012,T013*45
$GPWPL,0000.000,N,00000.000,W,T015*39
$GPRMC,125902,A,6129.025,N,02349.681,E,000.0,326.6,110805,006.0,E*79
$GPRMB,A,0.22,L,T013,T012,6129.236,N,02346.327,E,001.6,277.5,,V*17
$GPGGA,125902,6129.025,N,02349.681,E,1,05,3.0,101.0,M,20.7,M,,*44
$GPGSA,A,3,,,,,,18,19,,26,28,29,,3.8,3.0,2.1*3D
$GPGSV,3,1,11,03,03,012,00,07,01,153,00,08,53,094,38,10,16,209,31*7E
$GPGSV,3,2,11,15,13,332,42,18,18,327,37,19,21,035,32,21,05,299,31*72
$GPGSV,3,3,11,26,59,277,46,28,62,144,44,29,68,249,46,,,,*46
$PGRME,11.1,M,16.6,M,11.1,M*1F
$GPGLL,6129.025,N,02349.681,E,125903,A*2E
$PGRMZ,332,f,3*19
$PGRMM,WGS 84*06
$GPBOD,285.4,T,279.4,M,T012,T013*45
$GPWPL,0009.000,N,02430.650,E,T014*25
$GPRMC,125903,A,6129.025,N,02349.681,E,000.0,326.6,110805,006.0,E*78
$GPRMB,A,0.22,L,T013,T012,6129.236,N,02346.327,E,001.6,277.5,,V*17
$GPGGA,125904,6129.025,N,02349.681,E,1,05,2.8,101.1,M,20.7,M,,*4A
$GPGSA,A,3,,,,,,18,19,,26,28,29,,2.8,2.8,1.0*37
$GPGSV,3,1,11,03,03,012,00,07,01,153,00,08,53,094,38,10,16,209,31*7E
$GPGSV,3,2,11,15,13,332,41,18,18,327,36,19,21,035,31,21,05,299,31*73
$GPGSV,3,3,11,26,59,277,46,28,62,144,44,29,68,249,46,,,,*46
$PGRME,11.1,M,16.6,M,11.1,M*1F
$GPGLL,6129.025,N,02349.681,E,125904,A*29
$PGRMZ,332,f,3*19
$PGRMM,WGS 84*06
$GPBOD,285.4,T,279.4,M,T012,T013*45
$GPWPL,6123.285,N,02430.651,E,T013*23
$GPRMC,125905,A,6129.025,N,02349.682,E,000.0,326.6,110805,006.0,E*7D
$GPRMB,A,0.22,L,T013,T012,6129.236,N,02346.327,E,001.6,277.5,,V*17
$GPGGA,125905,6129.025,N,02349.682,E,1,05,2.8,101.2,M,20.7,M,,*4B
$GPGSA,A,3,,,,,,18,19,,26,28,29,,2.8,2.8,1.0*37
$GPGSV,3,1,11,03,03,012,00,07,01,153,00,08,53,094,38,10,16,209,31*7E
$GPGSV,3,2,11,15,13,332,41,18,18,327,36,19,21,035,31,21,05,299,31*73
$GPGSV,3,3,11,26,59,277,46,28,62,144,44,29,68,249,46,,,,*46
$PGRME,11.1,M,16.6,M,11.1,M*1F
$GPGLL,6129.025,N,02349.682,E,125906,A*28
$PGRMZ,332,f,3*19
$PGRMM,WGS 84*06
$GPBOD,285.4,T,279.4,M,T012,T013*45
$GPWPL,6129.236,N,02346.327,E,T012*22
$GPRMC,125906,A,6129.024,N,02349.681,E,000.0,326.6,110805,006.0,E*7C
$GPRMB,A,0.22,L,T013,T012,6129.236,N,02346.327,E,001.6,277.5,,V*17
$GPGGA,125906,6129.024,N,02349.681,E,1,05,3.9,101.2,M,20.7,M,,*4A
$GPGSA,A,3,,,,,,18,19,,26,28,29,,3.9,3.9,1.0*37
$GPGSV,3,1,11,03,03,012,00,07,01,153,00,08,53,094,38,10,16,209,31*7E
$GPGSV,3,2,11,15,13,332,41,18,18,327,36,19,21,035,31,21,05,299,31*73
$GPGSV,3,3,11,26,59,277,47,28,62,144,45,29,68,249,46,,,,*46
$PGRME,15.6,M,16.6,M,15.6,M*1F
$GPGLL,6129.024,N,02349.681,E,125906,A*2A
$PGRMZ,332,f,3*19
$PGRMM,WGS 84*06
$GPBOD,285.4,T,279.4,M,T012,T013*45
$GPWPL,6114.236,N,02346.327,E,T011*2F
$GPRMC,125907,A,6129.024,N,02349.681,E,000.0,326.6,110805,006.0,E*7D
$GPRMB,A,0.22,L,T013,T012,6129.236,N,02346.327,E,001.6,277.5,,V*17
$GPGGA,125907,6129.024,N,02349.681,E,1,05,4.9,101.3,M,20.7,M,,*4D
$GPGSA,A,3,,,,,,18,19,,26,28,29,,4.9,4.9,1.0*37
$GPGSV,3,1,11,03,03,012,00,07,01,153,00,08,53,094,38,10,16,209,30*7F
$GPGSV,3,2,11,15,13,332,41,18,18,327,35,19,21,035,30,21,05,299,31*71
$GPGSV,3,3,11,26,59,277,46,28,62,144,44,29,68,249,46,,,,*46
$PGRME,15.6,M,16.6,M,15.6,M*1F
$GPGLL,6129.024,N,02349.681,E,125908,A*24
$PGRMZ,332,f,3*19
$PGRMM,WGS 84*06
$GPBOD,285.4,T,279.4,M,T012,T013*45
$GPWPL,6220.236,N,02346.327,E,T010*2A
$GPRMC,125909,A,6129.024,N,02349.681,E,000.0,326.6,110805,006.0,E*73
$GPRMB,A,0.22,L,T013,T012,6129.236,N,02346.327,E,001.6,277.6,,V*14
$GPGGA,125909,6129.023,N,02349.681,E,1,05,6.7,101.3,M,20.7,M,,*48
$GPGSA,A,3,,,,,,18,19,,26,28,29,,6.7,6.7,1.0*37
$GPGSV,3,1,11,03,03,012,00,07,01,153,00,08,53,094,37,10,16,209,31*71
$GPGSV,3,2,11,15,13,332,41,18,18,327,34,19,21,035,30,21,05,299,31*70
$GPGSV,3,3,11,26,59,277,46,28,62,144,44,29,68,249,46,,,,*46
$PGRME,15.6,M,16.6,M,15.6,M*1F
$GPGLL,6129.023,N,02349.681,E,125909,A*22
$PGRMZ,332,f,3*19
$PGRMM,WGS 84*06
$GPBOD,285.4,T,279.4,M,T012,T013*45
$GPWPL,6120.236,N,02346.327,E,T009*21
$GPRMC,125910,A,6129.023,N,02349.681,E,000.0,326.6,110805,006.0,E*7C
$GPRMB,A,0.22,L,T013,T012,6129.236,N,02346.327,E,001.6,277.6,,V*14
$GPGGA,125910,6129.023,N,02349.681,E,1,05,2.8,101.4,M,20.7,M,,*4C
$GPGSA,A,3,,,,,,18,19,,26,28,29,,2.8,2.8,1.0*37
$GPGSV,3,1,11,03,03,012,00,07,02,153,00,08,53,094,37,10,16,209,31*72
$GPGSV,3,2,11,15,13,332,41,18,18,327,35,19,21,035,30,21,05,299,31*71
$GPGSV,3,3,11,26,59,277,46,28,62,144,45,29,68,249,46,,,,*47
$PGRME,11.1,M,16.6,M,11.1,M*1F
$GPGLL,6129.023,N,02349.681,E,125910,A*2A
$PGRMZ,333,f,3*18
$PGRMM,WGS 84*06
$GPBOD,285.4,T,279.4,M,T012,T013*45
$GPWPL,6129.234,N,02346.317,E,T008*28
$GPRMC,125911,A,6129.023,N,02349.681,E,000.0,326.6,110805,006.0,E*7D
$GPRMB,A,0.22,L,T013,T012,6129.236,N,02346.327,E,001.6,277.6,,V*14
$GPGGA,125912,6129.023,N,02349.681,E,1,05,2.8,101.4,M,20.7,M,,*4E
$GPGSA,A,3,,,,,,18,19,,26,,28,29,2.8,2.8,1.0*37
$GPGSV,3,1,12,03,03,012,00,07,02,153,00,08,53,094,37,10,16,209,31*71
$GPGSV,3,2,12,15,13,332,41,18,18,327,35,19,21,035,30,21,05,299,32*71
$GPGSV,3,3,12,26,59,277,47,27,20,092,00,28,62,144,44,29,68,249,46*78
$PGRME,11.1,M,16.6,M,11.1,M*1F
$GPGLL,6129.023,N,02349.681,E,125912,A*28
$PGRMZ,333,f,3*18
$PGRMM,WGS 84*06
$GPBOD,285.4,T,279.4,M,T012,T013*45
$GPWPL,6157.564,N,02406.158,E,T007*26
$GPRMC,125913,A,6129.023,N,02349.681,E,000.0,326.6,110805,006.0,E*7F
$GPRMB,A,0.22,L,T013,T012,6129.236,N,02346.327,E,001.6,277.6,,V*14
$GPGGA,125913,6129.023,N,02349.682,E,1,05,2.8,101.4,M,20.7,M,,*4C
$GPGSA,A,3,,,,,,18,,,26,,28,29,2.8,2.8,1.0*3F
$GPGSV,3,1,12,03,03,012,00,07,02,153,00,08,53,094,36,10,16,209,33*72
$GPGSV,3,2,12,15,13,332,41,18,18,327,35,19,21,035,30,21,05,299,32*71
$GPGSV,3,3,12,26,59,277,47,27,20,092,43,28,62,144,45,29,68,249,46*7E
$PGRME,11.1,M,16.6,M,11.1,M*1F
$GPGLL,6129.023,N,02349.682,E,125913,A*2A
$PGRMZ,333,f,3*18
$PGRMM,WGS 84*06
$GPBOD,285.4,T,279.4,M,T012,T013*45
$GPWPL,6145.919,N,02345.544,E,T006*2B
$GPRMC,125914,A,6129.024,N,02349.682,E,000.0,326.6,110805,006.0,E*7C
$GPRMB,A,0.22,L,T013,T012,6129.236,N,02346.327,E,001.6,277.6,,V*14
$GPGGA,125914,6129.024,N,02349.682,E,1,04,2.8,101.4,M,20.7,M,,*4D
$GPGSA,A,3,,,,,,18,,,26,,28,29,2.8,2.8,1.0*3F
$GPGSV,3,1,12,03,03,012,00,07,02,153,00,08,52,094,35,10,16,209,33*70
$GPGSV,3,2,12,15,13,332,41,18,18,327,36,19,21,035,30,21,05,299,33*73
$GPGSV,3,3,12,26,59,277,47,27,20,092,43,28,62,144,44,29,68,249,46*7F
$PGRME,11.1,M,16.6,M,11.1,M*1F
$GPGLL,6129.024,N,02349.682,E,125915,A*2B
$PGRMZ,333,f,3*18
$PGRMM,WGS 84*06
$GPBOD,285.4,T,279.4,M,T012,T013*45
$GPWPL,6130.198,N,02342.702,E,T005*2C
$GPRMC,125915,A,6129.024,N,02349.682,E,000.0,326.6,110805,006.0,E*7D
$GPRMB,A,0.22,L,T013,T012,6129.236,N,02346.327,E,001.6,277.5,,V*17
$GPGGA,125915,6129.024,N,02349.682,E,1,04,2.8,101.4,M,20.7,M,,*4C
$GPGSA,A,3,,,,,,18,,,26,,28,29,2.8,2.8,1.0*3F
$GPGSV,3,1,12,03,03,012,00,07,02,153,00,08,52,094,36,10,16,209,35*75
$GPGSV,3,2,12,15,13,332,41,18,18,327,36,19,21,035,30,21,05,299,34*74
$GPGSV,3,3,12,26,59,277,47,27,20,092,43,28,62,144,44,29,68,249,46*7F
$PGRME,11.1,M,16.6,M,11.1,M*1F
$GPGLL,6129.024,N,02349.683,E,125916,A*29
$PGRMZ,333,f,3*18
$PGRMM,WGS 84*06
$GPBOD,285.4,T,279.4,M,T012,T013*45
$GPWPL,6216.183,N,02619.685,E,T004*25
$GPRMC,125917,A,6129.024,N,02349.683,E,000.0,326.6,110805,006.0,E*7E
$GPRMB,A,0.22,L,T013,T012,6129.236,N,02346.327,E,001.6,277.5,,V*17
$GPGGA,125917,6129.024,N,02349.683,E,1,04,2.8,101.4,M,20.7,M,,*4F
$GPGSA,A,3,,,,,,18,,,26,,28,29,2.8,2.8,1.0*3F
$GPGSV,3,1,12,03,03,012,00,07,02,153,00,08,52,094,37,10,16,209,35*74
$GPGSV,3,2,12,15,13,332,42,18,18,327,36,19,21,035,30,21,05,299,34*77
$GPGSV,3,3,12,26,59,277,47,27,20,092,42,28,62,144,44,29,68,249,46*7E
$PGRME,11.1,M,16.6,M,11.1,M*1F
$GPGLL,6129.024,N,02349.683,E,125917,A*28
$PGRMZ,333,f,3*18
$PGRMM,WGS 84*06
$GPBOD,285.4,T,279.4,M,T012,T013*45
$GPWPL,6215.064,N,02603.837,E,T003*25
$GPRMC,125918,A,6129.024,N,02349.683,E,000.0,326.6,110805,006.0,E*71
$GPRMB,A,0.22,L,T013,T012,6129.236,N,02346.327,E,001.6,277.5,,V*17
$GPGGA,125918,6129.024,N,02349.683,E,1,04,2.8,101.4,M,20.7,M,,*40
$GPGSA,A,3,,,,,,18,,,26,,28,29,2.8,2.8,1.0*3F
$GPGSV,3,1,12,03,03,012,00,07,02,153,00,08,52,094,36,10,16,209,36*76
$GPGSV,3,2,12,15,13,332,42,18,18,327,37,19,21,035,30,21,05,299,34*76
$GPGSV,3,3,12,26,59,277,47,27,20,092,42,28,62,144,44,29,68,249,46*7E
$PGRME,11.1,M,16.6,M,11.1,M*1F
$GPGLL,6129.024,N,02349.683,E,125919,A*26
$PGRMZ,333,f,3*18
$PGRMM,WGS 84*06
$GPBOD,285.4,T,279.4,M,T012,T013*45
$GPWPL,6151.098,N,02510.924,E,T002*26
$GPRMC,125919,A,6129.023,N,02349.683,E,000.0,326.6,110805,006.0,E*77
$GPRMB,A,0.22,L,T013,T012,6129.236,N,02346.327,E,001.6,277.6,,V*14
$GPGGA,125919,6129.023,N,02349.683,E,1,04,2.9,100.2,M,20.7,M,,*40
$GPGSA,A,3,,,,,,18,19,,26,,28,29,3.3,2.9,1.6*3A
$GPGSV,3,1,12,03,03,012,00,07,02,153,00,08,52,094,36,10,16,209,36*76
$GPGSV,3,2,12,15,13,332,43,18,18,327,38,19,21,035,30,21,05,299,34*78
$GPGSV,3,3,12,26,59,277,47,27,20,092,42,28,62,144,44,29,68,249,46*7E
$PGRME,11.1,M,16.6,M,11.1,M*1F
$GPGLL,6129.023,N,02349.683,E,125920,A*2B
$PGRMZ,329,f,3*13
$PGRMM,WGS 84*06
$GPBOD,285.4,T,279.4,M,T012,T013*45
$GPWPL,6129.271,N,02346.376,E,T001*27
$GPRMC,125920,A,6129.023,N,02349.684,E,000.0,326.6,110805,006.0,E*7A
$GPRMB,A,0.22,L,T013,T012,6129.236,N,02346.327,E,001.6,277.5,,V*17
$GPGGA,125920,6129.023,N,02349.684,E,1,05,2.8,100.1,M,20.7,M,,*4E
$GPGSA,A,3,,,,,,18,19,,26,,28,29,2.8,2.8,1.0*37
$GPGSV,3,1,12,03,03,012,00,07,02,153,00,08,52,094,35,10,16,209,36*75
$GPGSV,3,2,12,15,13,332,43,18,18,327,39,19,21,035,30,21,05,299,32*7F
$GPGSV,3,3,12,26,59,277,46,27,20,092,41,28,62,144,44,29,68,249,46*7C
$PGRME,11.1,M,16.6,M,11.1,M*1F
$GPGLL,6129.023,N,02349.684,E,125921,A*2D
$PGRMZ,328,f,3*12
$PGRMM,WGS 84*06
$GPBOD,285.4,T,279.4,M,T012,T013*45
$GPRTE,4,1,c,0,T030,T029,T028,T027,T026,T025,T024,T023,T022*49
$GPRTE,4,2,c,0,T021,T020,T019,T018,T017,T016,T015,T014,T013*4B
$GPRTE,4,3,c,0,T012,T011,T010,T009,T008,T007,T006,T005,T004*4B
$GPRTE,4,4,c,0,T003,T002,T001*4F
$GPWPL,6016.083,N,02452.500,E,T030*22
$GPRMC,125922,A,6129.023,N,02349.684,E,000.0,326.6,110805,006.0,E*78
$GPRMB,A,0.22,L,T013,T012,6129.236,N,02346.327,E,001.6,277.5,,V*17
$GPGGA,125922,6129.023,N,02349.684,E,1,05,2.8,100.0,M,20.7,M,,*4D
$GPGSA,A,3,,,,,,18,19,,26,,28,29,2.8,2.8,1.0*37
$GPGSV,3,1,12,03,03,012,00,07,02,153,00,08,52,094,35,10,15,209,35*75
$GPGSV,3,2,12,15,13,332,42,18,18,327,40,19,21,035,30,21,05,299,32*70
$GPGSV,3,3,12,26,59,277,46,27,20,092,41,28,62,144,45,29,68,249,46*7D
$PGRME,11.1,M,16.6,M,11.1,M*1F
$GPGLL,6129.023,N,02349.684,E,125923,A*2F
$PGRMZ,328,f,3*12
$PGRMM,WGS 84*06
$GPBOD,285.4,T,279.4,M,T012,T013*45
$GPWPL,6123.283,N,02430.650,E,T029*2D
$GPRMC,125923,A,6129.023,N,02349.684,E,000.0,326.6,110805,006.0,E*79
$GPRMB,A,0.22,L,T013,T012,6129.236,N,02346.327,E,001.6,277.5,,V*17
$GPGGA,125924,6129.023,N,02349.684,E,1,05,2.8,100.0,M,20.7,M,,*4B
$GPGSA,A,3,,,,,,18,19,,26,,28,29,2.8,2.8,1.0*37
$GPGSV,3,1,12,03,03,012,00,07,02,153,00,08,52,094,36,10,15,209,36*75
$GPGSV,3,2,12,15,13,332,42,18,18,327,39,19,21,035,31,21,05,299,32*7F
$GPGSV,3,3,12,26,59,277,47,27,20,092,41,28,62,144,44,29,68,249,46*7D
$PGRME,11.5,M,17.3,M,12.8,M*15
$GPGLL,6129.023,N,02349.684,E,125924,A*28
$PGRMZ,329,f,3*13
$PGRMM,WGS 84*06
$GPBOD,285.4,T,279.4,M,T012,T013*45
$GPWPL,6023.283,N,02430.650,E,T028*2D
$GPRMC,125925,A,6129.023,N,02349.685,E,000.0,326.6,110805,006.0,E*7E
$GPRMB,A,0.22,L,T013,T012,6129.236,N,02346.327,E,001.6,277.5,,V*17
$GPGGA,125925,6129.023,N,02349.685,E,1,05,2.6,100.3,M,20.7,M,,*46
$GPGSA,A,3,,,,,15,18,19,,26,,28,29,2.6,2.6,1.0*33
$GPGSV,3,1,12,03,03,012,00,07,02,153,00,08,52,094,35,10,15,209,37*77
$GPGSV,3,2,12,15,13,332,43,18,18,327,39,19,21,035,31,21,05,299,31*7D
$GPGSV,3,3,12,26,59,277,47,27,20,092,42,28,62,144,44,29,68,249,46*7E
$PGRME,11.5,M,17.3,M,12.8,M*15
$GPGLL,6129.023,N,02349.685,E,125925,A*28
$PGRMZ,329,f,3*13
$PGRMM,WGS 84*06
$GPBOD,285.4,T,279.4,M,T012,T013*45
$GPWPL,6123.283,N,02430.650,E,T027*23
$GPRMC,125926,A,6129.023,N,02349.685,E,000.0,326.6,110805,006.0,E*7D
$GPRMB,A,0.22,L,T013,T012,6129.236,N,02346.327,E,001.6,277.5,,V*17
$GPGGA,125926,6129.023,N,02349.685,E,1,06,2.6,100.4,M,20.7,M,,*41
$GPGSA,A,3,,,,,15,18,19,,26,,28,29,2.6,2.6,1.0*33
$GPGSV,3,1,12,03,03,012,00,07,02,153,00,08,52,094,35,10,15,209,37*77
$GPGSV,3,2,12,15,13,332,42,18,18,327,38,19,21,035,32,21,05,299,31*7E
$GPGSV,3,3,12,26,59,277,47,27,20,092,41,28,62,144,45,29,68,249,46*7C
$PGRME,11.9,M,18.0,M,14.3,M*18
$GPGLL,6129.023,N,02349.685,E,125927,A*2A
$PGRMZ,329,f,3*13
$PGRMM,WGS 84*06
$GPBOD,285.4,T,279.4,M,T012,T013*45
$GPWPL,6017.083,N,02452.500,E,T026*24
$GPRMC,125927,A,6129.023,N,02349.685,E,000.0,326.6,110805,006.0,E*7C
$GPRMB,A,0.22,L,T013,T012,6129.236,N,02346.327,E,001.6,277.5,,V*17
$GPGGA,125927,6129.023,N,02349.685,E,1,06,2.6,100.4,M,20.7,M,,*40
$GPGSA,A,3,,,,,15,18,19,,26,,28,29,2.6,2.6,1.0*33
$GPGSV,3,1,12,03,03,012,00,07,02,153,00,08,52,094,36,10,15,209,36*75
$GPGSV,3,2,12,15,13,332,41,18,18,327,38,19,21,035,31,21,05,299,31*7E
$GPGSV,3,3,12,26,59,277,47,27,20,092,42,28,62,144,44,29,68,249,46*7E
$PGRME,9.9,M,16.6,M,9.9,M*1F
$GPGLL,6129.023,N,02349.685,E,125928,A*25
$PGRMZ,330,f,3*1B
$PGRMM,WGS 84*06
$GPBOD,285.4,T,279.4,M,T012,T013*45
$GPWPL,6017.083,S,02453.500,E,T025*3B
$GPRMC,125929,A,6129.023,N,02349.685,E,000.0,326.6,110805,006.0,E*72
$GPRMB,A,0.22,L,T013,T012,6129.236,N,02346.327,E,001.6,277.5,,V*17
$GPGGA,125929,6129.023,N,02349.685,E,1,06,2.6,100.5,M,20.7,M,,*4F
$GPGSA,A,3,,,,,15,18,19,,26,,28,29,2.6,2.6,1.0*33
$GPGSV,3,1,12,03,03,012,00,07,02,153,00,08,52,094,36,10,15,209,35*76
$GPGSV,3,2,12,15,13,332,41,18,18,327,38,19,21,035,32,21,05,299,31*7D
$GPGSV,3,3,12,26,59,277,47,27,20,092,42,28,62,144,44,29,68,249,46*7E
$PGRME,9.9,M,16.6,M,9.9,M*1F
$GPGLL,6129.023,N,02349.685,E,125929,A*24
$PGRMZ,331,f,3*1A
$PGRMM,WGS 84*06
$GPBOD,285.4,T,279.4,M,T012,T013*45
$GPWPL,6018.083,N,02453.500,E,T024*28
$GPRMC,125930,A,6129.023,N,02349.685,E,000.0,326.6,110805,006.0,E*7A
$GPRMB,A,0.22,L,T013,T012,6129.236,N,02346.327,E,001.6,277.5,,V*17
$GPGGA,125930,6129.023,N,02349.685,E,1,06,2.6,100.8,M,20.7,M,,*4A
$GPGSA,A,3,,,,,15,18,19,,26,,28,29,2.6,2.6,1.0*33
$GPGSV,3,1,12,03,03,012,00,07,02,153,00,08,52,094,36,10,15,209,35*76
$GPGSV,3,2,12,15,13,332,41,18,18,327,38,19,21,035,31,21,05,299,31*7E
$GPGSV,3,3,12,26,59,277,47,27,20,092,42,28,62,144,44,29,68,249,46*7E
$PGRME,9.9,M,16.6,M,9.9,M*1F
$GPGLL,6129.023,N,02349.686,E,125931,A*2E
$PGRMZ,331,f,3*1A
$PGRMM,WGS 84*06
$GPBOD,285.4,T,279.4,M,T012,T013*45
$GPWPL,6017.083,N,02452.500,W,T023*33
$GPRMC,125931,A,6129.023,N,02349.686,E,000.0,326.6,110805,006.0,E*78
$GPRMB,A,0.22,L,T013,T012,6129.236,N,02346.327,E,001.6,277.5,,V*17
$GPGGA,125931,6129.023,N,02349.686,E,1,06,2.6,100.8,M,20.7,M,,*48
$GPGSA,A,3,,,,,15,18,19,,26,,28,29,2.6,2.6,1.0*33
$GPGSV,3,1,12,03,03,012,00,07,02,153,00,08,52,094,35,10,15,209,35*75
$GPGSV,3,2,12,15,13,332,40,18,18,327,38,19,21,035,31,21,05,299,30*7E
$GPGSV,3,3,12,26,59,277,47,27,20,092,43,28,62,144,44,29,68,249,46*7F
$PGRME,9.9,M,16.6,M,9.9,M*1F
$GPGLL,6129.023,N,02349.686,E,125932,A*2D
$PGRMZ,331,f,3*1A
$PGRMM,WGS 84*06
$GPBOD,285.4,T,279.4,M,T012,T013*45
$GPWPL,6017.083,N,02555.500,E,T022*26
$GPRMC,125932,A,6129.023,N,02349.685,E,000.0,326.6,110805,006.0,E*78
$GPRMB,A,0.22,L,T013,T012,6129.236,N,02346.327,E,001.6,277.6,,V*14
$GPGGA,125932,6129.023,N,02349.685,E,1,06,2.6,99.9,M,20.7,M,,*78
$GPGSA,A,3,,,,,15,18,19,,26,,28,29,2.6,2.6,1.0*33
$GPGSV,3,1,12,03,03,012,00,07,02,153,00,08,52,094,35,10,15,209,34*74
$GPGSV,3,2,12,15,13,332,40,18,18,327,38,19,21,035,31,21,05,299,30*7E
$GPGSV,3,3,12,26,59,277,47,27,20,092,43,28,62,144,44,29,68,249,46*7F
$PGRME,9.9,M,16.6,M,9.9,M*1F
$GPGLL,6129.023,N,02349.685,E,125933,A*2F
$PGRMZ,328,f,3*12
$PGRMM,WGS 84*06
$GPBOD,285.4,T,279.4,M,T012,T013*45
$GPWPL,6017.083,N,02452.500,E,T021*23
$GPRMC,125934,A,6129.023,N,02349.685,E,000.0,326.6,110805,006.0,E*7E
$GPRMB,A,0.22,L,T013,T012,6129.236,N,02346.327,E,001.6,277.6,,V*14
$GPGGA,125934,6129.023,N,02349.685,E,1,06,2.5,99.9,M,20.7,M,,*7D
$GPGSA,A,3,,,,,15,18,19,,26,,28,29,2.5,2.5,1.0*33
$GPGSV,3,1,12,03,03,012,00,07,02,153,00,08,52,094,36,10,15,209,34*77
$GPGSV,3,2,12,15,13,332,40,18,18,327,39,19,21,035,31,21,05,299,30*7F
$GPGSV,3,3,12,26,59,277,47,27,20,092,43,28,62,144,44,29,68,249,46*7F
$PGRME,9.9,M,16.6,M,9.9,M*1F
$GPGLL,6129.023,N,02349.685,E,125935,A*29
$PGRMZ,328,f,3*12
$PGRMM,WGS 84*06
$GPBOD,285.4,T,279.4,M,T012,T013*45
$GPWPL,6116.083,N,02452.500,E,T020*22
$GPRMC,125935,A,6129.023,N,02349.686,E,000.0,326.6,110805,006.0,E*7C
$GPRMB,A,0.22,L,T013,T012,6129.236,N,02346.327,E,001.6,277.6,,V*14
$GPGGA,125935,6129.023,N,02349.686,E,1,06,2.5,99.9,M,20.7,M,,*7F
$GPGSA,A,3,,,,,15,18,19,,26,,28,29,2.5,2.5,1.0*33
$GPGSV,3,1,12,03,03,012,00,07,02,153,00,08,52,094,37,10,15,209,33*71
$GPGSV,3,2,12,15,13,332,40,18,18,327,39,19,21,035,31,21,05,299,30*7F
$GPGSV,3,3,12,26,59,277,47,27,20,092,43,28,62,144,44,29,68,249,46*7F
$PGRME,9.9,M,16.6,M,9.9,M*1F
$GPGLL,6129.023,N,02349.686,E,125936,A*29
$PGRMZ,328,f,3*12
$PGRMM,WGS 84*06
$GPBOD,285.4,T,279.4,M,T012,T013*45
$GPWPL,6016.083,S,02452.500,E,T019*34
$GPRMC,125936,A,6129.023,N,02349.685,E,000.0,326.6,110805,006.0,E*7C
$GPRMB,A,0.22,L,T013,T012,6129.236,N,02346.327,E,001.6,277.6,,V*14
$GPGGA,125936,6129.023,N,02349.685,E,1,06,2.5,99.5,M,20.7,M,,*73
$GPGSA,A,3,,,,,15,18,19,,26,27,28,29,2.5,2.5,1.0*36
$GPGSV,3,1,12,03,03,012,00,07,02,153,00,08,52,094,37,10,15,209,33*71
$GPGSV,3,2,12,15,13,332,41,18,18,327,39,19,21,035,31,21,05,299,30*7E
$GPGSV,3,3,12,26,59,277,47,27,20,092,43,28,62,144,45,29,68,249,46*7E
$PGRME,8.9,M,12.7,M,10.5,M*2F
$GPGLL,6129.023,N,02349.685,E,125936,A*2A
$PGRMZ,326,f,3*1C
$PGRMM,WGS 84*06
$GPBOD,285.4,T,279.4,M,T012,T013*45
$GPWPL,6016.083,N,02452.500,E,T018*28
$GPRMC,125938,A,6129.023,N,02349.685,E,000.0,326.6,110805,006.0,E*72
$GPRMB,A,0.22,L,T013,T012,6129.236,N,02346.327,E,001.6,277.6,,V*14
$GPGGA,125938,6129.023,N,02349.685,E,1,07,2.5,99.5,M,20.7,M,,*7C
$GPGSA,A,3,,,,,15,18,19,,26,27,28,29,2.5,2.5,1.0*36
$GPGSV,3,1,12,03,03,012,00,07,02,153,00,08,52,094,37,10,15,209,32*70
$GPGSV,3,2,12,15,13,332,41,18,18,327,39,19,21,035,31,21,05,299,30*7E
$GPGSV,3,3,12,26,59,277,47,27,20,092,43,28,62,144,45,29,68,249,46*7E
$PGRME,8.9,M,12.7,M,10.5,M*2F
$GPGLL,6129.023,N,02349.685,E,125938,A*24
$PGRMZ,326,f,3*1C
$PGRMM,WGS 84*06
$GPBOD,285.4,T,279.4,M,T012,T013*45
$GPWPL,6013.283,N,02456.650,E,T017*22
$GPRMC,125938,A,6129.023,N,02349.685,E,000.0,326.6,110805,006.0,E*72
$GPRMB,A,0.22,L,T013,T012,6129.236,N,02346.327,E,001.6,277.6,,V*14
$GPGGA,125938,6129.023,N,02349.685,E,1,07,1.5,99.5,M,20.7,M,,*7F
$GPGSA,A,3,,,,,15,18,19,,26,27,28,29,1.5,1.5,1.0*36
$GPGSV,3,1,12,03,03,012,00,07,02,153,00,08,52,094,37,10,15,209,33*71
$GPGSV,3,2,12,15,13,332,41,18,18,327,39,19,21,035,31,21,05,299,30*7E
